"name","lat","long","state"
"Jesús María",21.9514453187159,-102.406022896058,"Aguascalientes"
"San Francisco de los Romo",22.0326614051094,-102.24727245999,"Aguascalientes"
"Aguascalientes",21.8566591568022,-102.284708789075,"Aguascalientes"
"San José de Gracia",22.1288893058145,-102.541581684245,"Aguascalientes"
"Rincón de Romos",22.2616928990066,-102.30553514247,"Aguascalientes"
"Tepezalá",22.2146606081736,-102.214627185501,"Aguascalientes"
"Cosío",22.3612718842964,-102.28547663496,"Aguascalientes"
"Asientos",22.1101997975525,-102.05559532193,"Aguascalientes"
"Calvillo",21.8842813291777,-102.712209969974,"Aguascalientes"
"El Llano",21.9624136630124,-102.051709809112,"Aguascalientes"
"Pabellón de Arteaga",22.1039722072784,-102.264807467158,"Aguascalientes"
"Playas de Rosarito",32.3061403201112,-116.976450145927,"Baja California"
"Tijuana",32.4227270627166,-117.001692132279,"Baja California"
"Ensenada",29.6521777545482,-114.946439826075,"Baja California"
"Mexicali",30.0998021521374,-113.946463625739,"Baja California"
"Tecate",32.3856195336561,-116.302462873464,"Baja California"
"Loreto",25.9201777033783,-111.200270895955,"Baja California Sur"
"Mulegé",27.2031904517766,-113.157550000847,"Baja California Sur"
"Comondú",25.4187791296661,-111.876365097635,"Baja California Sur"
"La Paz",24.4405926144007,-110.496804914221,"Baja California Sur"
"Los Cabos",23.0428577748448,-109.801935696361,"Baja California Sur"
"Carmen",18.483713584103,-91.727484837923,"Campeche"
"Palizada",18.4577183391855,-91.9147587368701,"Campeche"
"Calkiní",20.5307311680975,-90.4338094795571,"Campeche"
"Hecelchakán",20.1491504126237,-90.3147383839289,"Campeche"
"Campeche",19.7835870306915,-90.5809680954008,"Campeche"
"Candelaria",18.0826866714447,-91.1348999125294,"Campeche"
"Calakmul",18.4172424211766,-89.7176235655739,"Campeche"
"Escárcega",18.5584340949156,-90.6962575074414,"Campeche"
"Tenabo",20.0096562383997,-90.3964665771108,"Campeche"
"Hopelchén",19.6532284396495,-89.7822746558256,"Campeche"
"Champotón",19.1940908488101,-90.8314603163633,"Campeche"
"Saltillo",25.2856325069887,-101.093471825119,"Coahuila"
"Castaños",26.5346742326396,-101.298344294906,"Coahuila"
"Ramos Arizpe",25.6548586272968,-101.014781716925,"Coahuila"
"Progreso",27.4309648237705,-100.8317181251,"Coahuila"
"Juárez",27.5622868546697,-100.614374728786,"Coahuila"
"Hidalgo",27.8906508503925,-99.9771254343463,"Coahuila"
"Candela",26.9485229244785,-100.597000322955,"Coahuila"
"Arteaga",25.3705944337161,-100.61984401311,"Coahuila"
"Torreón",25.1404654475085,-103.236643503933,"Coahuila"
"Zaragoza",28.7402829380775,-101.084756471544,"Coahuila"
"Villa Unión",28.2081652982116,-100.747930929852,"Coahuila"
"Viesca",24.8898987006547,-102.995900284037,"Coahuila"
"Sierra Mojada",27.4235298323976,-103.690772818252,"Coahuila"
"San Pedro",25.9234368722663,-102.857885018495,"Coahuila"
"San Juan de Sabinas",27.9552711456235,-101.349344297959,"Coahuila"
"San Buenaventura",27.6528293361867,-101.865785888855,"Coahuila"
"Sacramento",26.9881792721619,-101.738562741706,"Coahuila"
"Sabinas",27.8929249055778,-101.197801422998,"Coahuila"
"Piedras Negras",28.7395083588887,-100.532313625376,"Coahuila"
"Parras",25.5163970229582,-102.043690336802,"Coahuila"
"Ocampo",28.8418043176374,-103.05442551901,"Coahuila"
"Nava",28.5446977959993,-100.574490198556,"Coahuila"
"Nadadores",27.1442738175519,-101.679820817949,"Coahuila"
"Múzquiz",28.0434919436367,-101.590759351835,"Coahuila"
"Morelos",28.3555405318493,-100.982593616807,"Coahuila"
"Monclova",26.8998227817738,-101.349976012123,"Coahuila"
"Matamoros",25.6184147869481,-103.269814885883,"Coahuila"
"Lamadrid",27.1172131158505,-101.877693017812,"Coahuila"
"Jiménez",29.0928314426559,-100.845745567272,"Coahuila"
"Guerrero",28.258423281379,-100.346927558513,"Coahuila"
"General Cepeda",25.4953885188803,-101.487712488895,"Coahuila"
"Frontera",26.9390232003863,-101.472439988833,"Coahuila"
"Francisco I. Madero",25.91098870716,-103.245476991841,"Coahuila"
"Escobedo",27.2463817911287,-101.288097029493,"Coahuila"
"Cuatro Ciénegas",26.7620926607076,-102.307502807818,"Coahuila"
"Allende",28.3094140492511,-100.858441620064,"Coahuila"
"Acuña",29.6639275025312,-102.149365171724,"Coahuila"
"Abasolo",27.1699944478764,-101.343767455801,"Coahuila"
"Armería",19.0217813986177,-103.991486558768,"Colima"
"Colima",19.132668819938,-103.617399284015,"Colima"
"Comala",19.4129798965921,-103.765856946886,"Colima"
"Coquimatlán",19.2074854864404,-103.914756040595,"Colima"
"Cuauhtémoc",19.3271380914534,-103.581297028775,"Colima"
"Ixtlahuacán",18.9639426395812,-103.67633766133,"Colima"
"Manzanillo",19.1306987711422,-104.523852962982,"Colima"
"Minatitlán",19.3353031160073,-104.083611197828,"Colima"
"Tecomán",18.8707027421236,-106.038629564649,"Colima"
"Villa de Álvarez",19.319556698559,-103.767942389505,"Colima"
"Chiapa de Corzo",16.6204052134841,-92.9593991354984,"Chiapas"
"Tuxtla Gutiérrez",16.7248196032121,-93.1249956851067,"Chiapas"
"La Trinitaria",15.969744133881,-91.9373150256066,"Chiapas"
"Tuxtla Chico",14.8857119949158,-92.2168930550393,"Chiapas"
"Metapa",14.8217417324318,-92.2045042002417,"Chiapas"
"Maravilla Tenejapa",16.2710117265704,-91.2652543222642,"Chiapas"
"Ocosingo",16.7388690597419,-91.381492009359,"Chiapas"
"Tapachula",14.9073954014393,-92.2823007015267,"Chiapas"
"La Independencia",16.2053563967282,-91.7908289382963,"Chiapas"
"Acapetahua",15.2555409606677,-92.768878681587,"Chiapas"
"Escuintla",15.3115009397431,-92.5755990262395,"Chiapas"
"La Libertad",17.593796208011,-91.6817438973228,"Chiapas"
"Tonalá",16.0643274525779,-93.9155568401906,"Chiapas"
"Tecpatán",17.164601258321,-93.5855562588633,"Chiapas"
"Tapalapa",17.2262504185037,-93.1215152916465,"Chiapas"
"Sunuapa",17.4916998456981,-93.2570014895684,"Chiapas"
"San Fernando",16.9388068949958,-93.2148814273321,"Chiapas"
"Reforma",17.8708476078372,-93.2579056729228,"Chiapas"
"Ostuacán",17.4644663100419,-93.4732261281766,"Chiapas"
"Ocotepec",17.2143924061393,-93.1581543197969,"Chiapas"
"Juárez",17.7245798897946,-93.1740386189283,"Chiapas"
"Ixtacomitán",17.4375155673995,-93.0839965324346,"Chiapas"
"Francisco León",17.2802894462669,-93.2849615947621,"Chiapas"
"Chapultenango",17.3337441360818,-93.138921970704,"Chiapas"
"Copainalá",17.0885516227552,-93.2360033249764,"Chiapas"
"Arriaga",16.1370879668987,-94.0311499021318,"Chiapas"
"Ixhuatán",17.3087506255025,-92.9990566651481,"Chiapas"
"Huixtla",15.1461836523172,-92.5251226060902,"Chiapas"
"Huitiupán",17.2374536966901,-92.7021425346382,"Chiapas"
"Huixtán",16.6963578541926,-92.4317614887206,"Chiapas"
"Huehuetán",15.0260032920493,-92.3936666340793,"Chiapas"
"Frontera Hidalgo",14.7591585919837,-92.2327118996959,"Chiapas"
"Frontera Comalapa",15.801012993089,-92.0743708837337,"Chiapas"
"Chilón",17.0896811418092,-92.0934283494444,"Chiapas"
"Chicomuselo",15.8219824451149,-92.3209930039557,"Chiapas"
"Chicoasén",17.0005731434975,-93.1094696724816,"Chiapas"
"Chiapilla",16.5548160912972,-92.7338632443271,"Chiapas"
"Chenalhó",16.9719797598056,-92.5588104318998,"Chiapas"
"Chanal",16.6607998160082,-92.1961213132735,"Chiapas"
"Chamula",16.8365810304927,-92.7264807207743,"Chiapas"
"Chalchihuitán",17.0285585437682,-92.5795703728837,"Chiapas"
"Comitán de Domínguez",16.2833125913994,-92.1731486031522,"Chiapas"
"Coapilla",17.1134770261443,-93.1265616366521,"Chiapas"
"Catazajá",17.7790121125469,-91.9888593977965,"Chiapas"
"Cacahoatán",15.0662654449064,-92.1667530076297,"Chiapas"
"El Bosque",17.0438304225998,-92.7534183504065,"Chiapas"
"Bochil",17.024530947515,-92.951226174841,"Chiapas"
"Bejucal de Ocampo",15.4847209779587,-92.1521995697867,"Chiapas"
"Angel Albino Corzo",15.7335610042277,-92.6918357481408,"Chiapas"
"Amatenango del Valle",16.492468179076,-92.4153444335367,"Chiapas"
"Amatenango de la Frontera",15.5552723689734,-92.1048730782126,"Chiapas"
"Amatán",17.4104963023006,-92.8385342239932,"Chiapas"
"Altamirano",16.6944098455675,-91.8595437721475,"Chiapas"
"Acala",16.5200288503073,-92.8094177108847,"Chiapas"
"Acacoyagua",15.391171513537,-92.7145762135772,"Chiapas"
"Santiago el Pinar",16.9611836556073,-92.7240120679928,"Chiapas"
"San Andrés Duraznal",17.157643315266,-92.7959964980983,"Chiapas"
"Montecristo de Guerrero",15.6919428122223,-92.6222169012986,"Chiapas"
"Marqués de Comillas",16.2819523362245,-90.7921336607996,"Chiapas"
"Benemérito de las Américas",16.3693897294412,-90.5429669742371,"Chiapas"
"Aldama",16.9278033136008,-92.6808008056505,"Chiapas"
"San Juan Cancuc",16.9392846082391,-92.3762185473979,"Chiapas"
"Zinacantán",16.7218453754194,-92.7877357103148,"Chiapas"
"San Lucas",16.6197052706383,-92.7427871883864,"Chiapas"
"Yajalón",17.1959221537324,-92.3393046304228,"Chiapas"
"Villaflores",16.3243150239675,-93.3288489824268,"Chiapas"
"Villa Corzo",16.1656541040016,-93.01573851773,"Chiapas"
"Venustiano Carranza",16.3281427143494,-92.6814893690961,"Chiapas"
"Unión Juárez",15.0572347439045,-92.1142661758666,"Chiapas"
"Tzimol",16.1009557483232,-92.2664811897803,"Chiapas"
"Tuzantán",15.1514265929585,-92.403622270102,"Chiapas"
"Tumbalá",17.2934615483149,-92.2671303047419,"Chiapas"
"Totolapa",16.5100275944088,-92.6735550389819,"Chiapas"
"Teopisca",16.5502801331179,-92.5339902729766,"Chiapas"
"Tenejapa",16.8507454365567,-92.4643621992215,"Chiapas"
"Tapilula",17.2554238674556,-92.997810056131,"Chiapas"
"Suchiate",14.6570382635399,-92.245708980204,"Chiapas"
"Suchiapa",16.603117096502,-93.1306830969458,"Chiapas"
"Solosuchiapa",17.384937375754,-93.0081001060231,"Chiapas"
"Sitalá",17.0219406707565,-92.3462741371277,"Chiapas"
"Simojovel",17.1285644782533,-92.6400311451731,"Chiapas"
"Siltepec",15.5842325769885,-92.4028775851047,"Chiapas"
"Salto de Agua",17.4107537633196,-92.1618641494259,"Chiapas"
"Sabanilla",17.3412917858206,-92.6296644368471,"Chiapas"
"Las Rosas",16.3393029800113,-92.3841086722917,"Chiapas"
"Rayón",17.1813350550629,-92.9893616113681,"Chiapas"
"Pueblo Nuevo Solistahuacán",17.2101107697836,-92.8789761072404,"Chiapas"
"Villa Comaltitlán",15.1983600876537,-92.6000851943431,"Chiapas"
"El Porvenir",15.4274703343834,-92.2689234778236,"Chiapas"
"Pijijiapan",15.6965877275379,-93.1157985505446,"Chiapas"
"Pichucalco",17.5510837061119,-93.1316225824344,"Chiapas"
"Pantepec",17.1838317542654,-93.0531014670115,"Chiapas"
"Pantelhó",17.0724891935069,-92.5048813351506,"Chiapas"
"Palenque",17.44278657173,-91.7867063760674,"Chiapas"
"Oxchuc",16.8132026286109,-92.3420468559752,"Chiapas"
"Osumacinta",16.8996144997596,-93.0854414323482,"Chiapas"
"Nicolás Ruíz",16.4255705923437,-92.6050267102815,"Chiapas"
"Motozintla",15.281822127706,-92.3315227266541,"Chiapas"
"Mitontic",16.8713885807881,-92.5915228219515,"Chiapas"
"Mazatán",14.8885981811796,-92.4758990148472,"Chiapas"
"Mazapa de Madero",15.3638240675144,-92.196915369899,"Chiapas"
"Las Margaritas",16.3471314463608,-91.6888148184844,"Chiapas"
"Mapastepec",15.4900286609338,-92.8677146476284,"Chiapas"
"Larráinzar",16.9344753961093,-92.7675692863604,"Chiapas"
"Jitotol",17.0923584812671,-92.8850629964223,"Chiapas"
"Ixtapangajoya",17.4833017571922,-92.9767185397387,"Chiapas"
"Ixtapa",16.806804337371,-92.8941178896498,"Chiapas"
"Tila",17.3985134966886,-92.5150498387456,"Chiapas"
"Soyaló",16.9101602631464,-92.9739274642105,"Chiapas"
"Jiquipilas",16.6373845693517,-93.6150235297929,"Chiapas"
"La Grandeza",15.5080337490081,-92.2259417517677,"Chiapas"
"Bella Vista",15.6282899457525,-92.2496146915966,"Chiapas"
"Ocozocoautla de Espinosa",16.9324592025223,-93.5821268844101,"Chiapas"
"Cintalapa",16.8156124484054,-93.7274855699892,"Chiapas"
"Socoltenango",16.0502682306132,-92.3256785275306,"Chiapas"
"La Concordia",15.9875789259436,-92.8252749231752,"Chiapas"
"Berriozábal",16.8700188245607,-93.3179443429713,"Chiapas"
"San Cristóbal de las Casas",16.6822083839426,-92.5704260882201,"Chiapas"
"Bachíniva",28.8630404175099,-107.312226598736,"Chihuahua"
"Juárez",31.407532155101,-106.664918597097,"Chihuahua"
"Casas Grandes",30.2287348311477,-108.110027695379,"Chihuahua"
"Nuevo Casas Grandes",30.471391589862,-107.7771985316,"Chihuahua"
"Praxedis G. Guerrero",31.2254783439094,-105.952774056827,"Chihuahua"
"Ascensión",31.1590942796028,-107.265307642394,"Chihuahua"
"Gómez Farías",29.3429493136826,-107.82172192129,"Chihuahua"
"Chínipas",27.3802674144103,-108.463937992781,"Chihuahua"
"Galeana",30.1764233656381,-107.763815758419,"Chihuahua"
"Guadalupe",30.847608727135,-105.579617891922,"Chihuahua"
"Guazapares",27.3828219583336,-108.29825153429,"Chihuahua"
"Janos",30.6026719006061,-108.251312931305,"Chihuahua"
"Madera",29.2390038819471,-108.340091729358,"Chihuahua"
"Maguarichi",27.8098125432141,-107.95072889554,"Chihuahua"
"Matachí",28.8777938500676,-107.70774513042,"Chihuahua"
"Ocampo",28.1729788616024,-108.229220147464,"Chihuahua"
"Temósachic",28.6623029276431,-108.06275868899,"Chihuahua"
"Urique",27.2519070230878,-107.975394156006,"Chihuahua"
"Uruachi",27.8498157661766,-108.420962458164,"Chihuahua"
"Guadalupe y Calvo",26.2725956081875,-107.163253640623,"Chihuahua"
"Morelos",26.6522144645421,-107.782879325916,"Chihuahua"
"Moris",28.1422598356868,-108.615631612573,"Chihuahua"
"Aldama",28.9964688072716,-105.535855607949,"Chihuahua"
"Rosales",28.2312945835867,-105.76302920053,"Chihuahua"
"Delicias",28.1663156684751,-105.440862427061,"Chihuahua"
"Meoqui",28.3379910551665,-105.47517445833,"Chihuahua"
"Ahumada",30.5062169108354,-106.344726966424,"Chihuahua"
"Cuauhtémoc",28.6525088165954,-106.989643728521,"Chihuahua"
"Riva Palacio",28.7222382000299,-106.488693165677,"Chihuahua"
"Hidalgo del Parral",27.145507452588,-105.698152365394,"Chihuahua"
"Allende",27.1175761670323,-105.393314346129,"Chihuahua"
"Camargo",27.9141886454832,-104.712888521718,"Chihuahua"
"Jiménez",27.0321588439159,-104.566141513637,"Chihuahua"
"Julimes",28.5057379021813,-105.120694360387,"Chihuahua"
"Ojinaga",29.7509994811842,-104.611581949338,"Chihuahua"
"Saucillo",28.0122508381171,-105.353594458669,"Chihuahua"
"Manuel Benavides",28.9815232411528,-103.724111171406,"Chihuahua"
"Balleza",26.8152206936141,-106.60284250862,"Chihuahua"
"Batopilas",26.8987613663875,-107.772514935274,"Chihuahua"
"Bocoyna",27.794537654009,-107.606412158813,"Chihuahua"
"Buenaventura",30.0360859720434,-107.16713946038,"Chihuahua"
"Carichí",27.7728453762503,-107.184309671104,"Chihuahua"
"Coronado",26.6338918727868,-105.103256093846,"Chihuahua"
"Coyame del Sotol",29.7611164662141,-105.310978394592,"Chihuahua"
"La Cruz",27.851565469877,-104.980506102038,"Chihuahua"
"Cusihuiriachi",28.28794412941,-106.821216824874,"Chihuahua"
"Dr. Belisario Domínguez",27.940152032629,-106.400380874912,"Chihuahua"
"Santa Isabel",28.3273094892597,-106.301635687327,"Chihuahua"
"Gran Morelos",28.3068064858218,-106.583011039504,"Chihuahua"
"Guachochi",27.1538662448117,-107.195792600064,"Chihuahua"
"Guerrero",28.3111194993196,-107.504431672541,"Chihuahua"
"Huejotitán",27.1598231193901,-106.03576257326,"Chihuahua"
"Ignacio Zaragoza",29.7504856248261,-107.776903765055,"Chihuahua"
"López",26.9190239805564,-104.95136375237,"Chihuahua"
"Matamoros",26.7279844904015,-105.530944865683,"Chihuahua"
"Namiquipa",29.2620549725981,-107.152767316554,"Chihuahua"
"Nonoava",27.4759970746965,-106.554883954507,"Chihuahua"
"Rosario",27.254543881091,-106.293244031552,"Chihuahua"
"San Francisco de Borja",27.8774324756101,-106.77076691187,"Chihuahua"
"San Francisco de Conchos",27.5034725359292,-105.365293239093,"Chihuahua"
"San Francisco del Oro",26.9648216282789,-105.914974441689,"Chihuahua"
"Santa Bárbara",26.8187257258561,-105.703986827796,"Chihuahua"
"Satevó",27.761298019937,-106.204268333308,"Chihuahua"
"El Tule",27.0610295852986,-106.330265006482,"Chihuahua"
"Valle de Zaragoza",27.4111021471593,-105.860293739058,"Chihuahua"
"Chihuahua",28.6861254515252,-106.18939489132,"Chihuahua"
"Aquiles Serdán",28.5570569240459,-105.84266233817,"Chihuahua"
"Azcapotzalco",19.4870794068434,-99.1845593388222,NA
"Gustavo A. Madero",19.4972975044916,-99.1140259335981,NA
"Miguel Hidalgo",19.4188746532997,-99.2158858385537,NA
"Iztacalco",19.3951654043826,-99.0965000551286,NA
"Venustiano Carranza",19.4337891573343,-99.0950108332414,NA
"Iztapalapa",19.3553475367811,-99.0620013819872,NA
"Tlalpan",19.2485473109215,-99.187920263561,NA
"Xochimilco",19.23664053109,-99.1116484652396,NA
"La Magdalena Contreras",19.274538054826,-99.2618699664026,NA
"Benito Juárez",19.3804787544233,-99.1642149150873,NA
"Cuauhtémoc",19.4305536914277,-99.1489492654076,NA
"Álvaro Obregón",19.3293787936505,-99.2580735561504,NA
"Cuajimalpa de Morelos",19.3472656183992,-99.2847449098719,NA
"Coyoacán",19.3258295476531,-99.1532487913434,NA
"Tláhuac",19.2675765828572,-99.0111617081786,NA
"Milpa Alta",19.1898018040233,-99.0427779328579,NA
"Gómez Palacio",25.6620970310628,-103.420307041665,"Durango"
"Tamazula",24.9441157082754,-106.644073508133,"Durango"
"Topia",25.1871749398388,-106.735424608417,"Durango"
"Vicente Guerrero",23.7407276472083,-103.967523625814,"Durango"
"Nuevo Ideal",24.9052609802269,-105.120103084758,"Durango"
"Tepehuanes",25.5499433029041,-106.00421200501,"Durango"
"Súchil",23.3726739724124,-104.168627163879,"Durango"
"San Juan de Guadalupe",24.6537021804209,-102.803012504188,"Durango"
"Santa Clara",24.4055516844452,-103.396984476058,"Durango"
"Canatlán",24.4440640440423,-105.199780053887,"Durango"
"Canelas",25.1157754274992,-106.572379109652,"Durango"
"Coneto de Comonfort",25.1170972000392,-104.882466068818,"Durango"
"Cuencamé",24.5621289435391,-103.787234974303,"Durango"
"Durango",24.0099243541429,-104.692876553304,"Durango"
"Guadalupe Victoria",24.3214213783882,-104.099240676574,"Durango"
"Hidalgo",26.1818707547347,-104.856832158904,"Durango"
"Indé",25.823517077283,-105.024802974005,"Durango"
"Mapimí",26.0593657115894,-104.147284455858,"Durango"
"Mezquital",22.9746326115578,-104.475195740769,"Durango"
"Nazas",25.3904785150383,-104.102761701626,"Durango"
"Nombre de Dios",23.8175692961857,-104.207380580988,"Durango"
"El Oro",25.5216841040209,-105.230768695579,"Durango"
"Otáez",24.7637393876558,-105.979282728158,"Durango"
"Pánuco de Coronado",24.51661401522,-104.337732817072,"Durango"
"Peñón Blanco",24.7609674159286,-104.06871367819,"Durango"
"Poanas",24.0572131051472,-104.123894774517,"Durango"
"Pueblo Nuevo",23.2759125936063,-105.378729020321,"Durango"
"Rodeo",25.0831127057081,-104.522942236449,"Durango"
"San Bernardo",26.1816675171287,-105.703469065856,"Durango"
"San Dimas",24.1991353878801,-105.745089373809,"Durango"
"San Juan del Río",24.8862904289923,-104.385597205667,"Durango"
"San Luis del Cordero",25.426635403585,-104.288269166948,"Durango"
"San Pedro del Gallo",25.5966474121123,-104.459671237056,"Durango"
"Santiago Papasquiaro",24.8864923226937,-106.236036287954,"Durango"
"General Simón Bolívar",24.839446232069,-103.072095546295,"Durango"
"Lerdo",25.4334508130151,-103.58704087651,"Durango"
"Ocampo",26.4573849578824,-105.699935596094,"Durango"
"Guanaceví",25.9836337714497,-105.879878237089,"Durango"
"Tlahualilo",26.1004993302032,-103.583016234966,"Durango"
"Comonfort",20.7409298686039,-100.799552450159,"Guanajuato"
"Celaya",20.5349580146381,-100.784974637158,"Guanajuato"
"Purísima del Rincón",20.9250342709589,-101.93941394113,"Guanajuato"
"San Felipe",21.3921239982661,-101.373430553882,"Guanajuato"
"Xichú",21.3501784658998,-99.9861649475155,"Guanajuato"
"Doctor Mora",21.1310408799126,-100.349945009762,"Guanajuato"
"Santa Catarina",21.152669986725,-100.076871452029,"Guanajuato"
"Tierra Blanca",21.0631515795114,-100.167659205035,"Guanajuato"
"Uriangato",20.1259684333986,-101.168796277069,"Guanajuato"
"Victoria",21.4030432872429,-100.227298938893,"Guanajuato"
"Atarjea",21.2761139569808,-99.8146123110167,"Guanajuato"
"Salvatierra",20.1828346203294,-100.914834588679,"Guanajuato"
"San José Iturbide",21.0240024976263,-100.403148202924,"Guanajuato"
"Pueblo Nuevo",20.5478805754419,-101.357153837939,"Guanajuato"
"Santiago Maravatío",20.154776450419,-101.002159149425,"Guanajuato"
"Apaseo el Alto",20.4373616452383,-100.582586643967,"Guanajuato"
"Apaseo el Grande",20.5713691256334,-100.631142867856,"Guanajuato"
"Yuriria",20.1780904272517,-101.194452731757,"Guanajuato"
"Jerécuaro",20.1343794521962,-100.511013731829,"Guanajuato"
"Tarimoro",20.2988835053267,-100.750021496043,"Guanajuato"
"Coroneo",20.1968385902755,-100.394685549762,"Guanajuato"
"Tarandacuao",20.0135747942004,-100.531552222144,"Guanajuato"
"Cortazar",20.4360524531923,-100.944136475311,"Guanajuato"
"Acámbaro",20.0678584971697,-100.632749772246,"Guanajuato"
"San Miguel de Allende",20.9179028967675,-100.759960666433,"Guanajuato"
"San Francisco del Rincón",20.9419528979036,-101.790932688597,"Guanajuato"
"Manuel Doblado",20.7164219346041,-101.873787392576,"Guanajuato"
"Cuerámaro",20.6184901764012,-101.651122120386,"Guanajuato"
"Valle de Santiago",20.3999566595292,-101.283353191848,"Guanajuato"
"San Luis de la Paz",21.4343204462904,-100.460976733513,"Guanajuato"
"Pénjamo",20.3984514881904,-101.83353448945,"Guanajuato"
"Silao de la Victoria",20.9800539966722,-101.426483537273,"Guanajuato"
"Abasolo",20.4946983666771,-101.544616077698,"Guanajuato"
"Huanímaro",20.3676505209163,-101.493823488277,"Guanajuato"
"San Diego de la Unión",21.3795121652937,-100.814205068698,"Guanajuato"
"Villagrán",20.5435404693452,-101.009104698036,"Guanajuato"
"Santa Cruz de Juventino Rosas",20.6764230025863,-101.005848381953,"Guanajuato"
"Salamanca",20.6171583609205,-101.157541708183,"Guanajuato"
"Irapuato",20.6860367954789,-101.373244774089,"Guanajuato"
"Romita",20.8066772164614,-101.613708502387,"Guanajuato"
"Guanajuato",21.03277543017,-101.294491681213,"Guanajuato"
"León",21.1168162210327,-101.573726452497,"Guanajuato"
"Jaral del Progreso",20.362307519965,-101.046126584125,"Guanajuato"
"Ocampo",21.5794670571861,-101.492673269191,"Guanajuato"
"Moroleón",20.0970275197982,-101.226517937126,"Guanajuato"
"Dolores Hidalgo Cuna de la Independencia Nacional",21.1167893650753,-100.949242649034,"Guanajuato"
"Apaxtla",18.0879883422331,-99.9765572781826,"Guerrero"
"Cocula",18.169723208058,-99.7176513992528,"Guerrero"
"Cuetzala del Progreso",18.0788542847444,-99.8350072872795,"Guerrero"
"Chilapa de Álvarez",17.5214627454805,-99.0993841720339,"Guerrero"
"Chilpancingo de los Bravo",17.3802040192438,-99.6935600943186,"Guerrero"
"General Canuto A. Neri",18.4223242598429,-100.124206976013,"Guerrero"
"General Heliodoro Castillo",17.7586112685128,-99.9632145939764,"Guerrero"
"Huitzuco de los Figueroa",18.2805328843631,-99.2451808483417,"Guerrero"
"Juan R. Escudero",17.1479600248368,-99.4891808063365,"Guerrero"
"Leonardo Bravo",17.6894511316291,-99.7962330463411,"Guerrero"
"Mártir de Cuilapan",17.8526469477816,-99.3859821861564,"Guerrero"
"Mochitlán",17.3881149130532,-99.3787449460127,"Guerrero"
"Quechultenango",17.2806428091942,-99.2206047509657,"Guerrero"
"San Marcos",16.8258279701196,-99.4682394889001,"Guerrero"
"Tecoanapa",16.9860655491081,-99.2513492297803,"Guerrero"
"Teloloapan",18.3678846026649,-99.9057887565044,"Guerrero"
"Tepecoacuilco de Trujano",18.1037376973941,-99.4667552905396,"Guerrero"
"Tixtla de Guerrero",17.5316374314014,-99.3442769572866,"Guerrero"
"Zitlala",17.7357585029218,-99.1518008693153,"Guerrero"
"Eduardo Neri",17.8345829505025,-99.6594474098116,"Guerrero"
"Iguala de la Independencia",18.2830200304515,-99.5668033852463,"Guerrero"
"Coyuca de Benítez",17.0630202617851,-100.102952980625,"Guerrero"
"Alpoyeca",17.6601372172203,-98.5250472605806,"Guerrero"
"Atenango del Río",18.160740427719,-99.1138506918834,"Guerrero"
"Atlamajalcingo del Monte",17.2662214347529,-98.5885972636995,"Guerrero"
"Atlixtac",17.5232778066406,-98.8963661539029,"Guerrero"
"Ayutla de los Libres",17.0411294763569,-99.0796991132858,"Guerrero"
"Azoyú",16.6856062796716,-98.5371717381764,"Guerrero"
"Copala",16.633513537822,-98.9063037236152,"Guerrero"
"Copalillo",17.9805123235888,-99.014216360496,"Guerrero"
"Copanatoyac",17.4291393484091,-98.6787947968042,"Guerrero"
"Cualác",17.7238971983177,-98.6898158983592,"Guerrero"
"Cuautepec",16.7157923177481,-98.9541844371541,"Guerrero"
"Florencio Villarreal",16.6863867078699,-99.1240208148358,"Guerrero"
"Huamuxtitlán",17.8426439561535,-98.5422182841835,"Guerrero"
"Igualapa",16.7952268217846,-98.4985270828217,"Guerrero"
"Malinaltepec",17.156867216431,-98.7108888324046,"Guerrero"
"Olinalá",17.9162828315799,-98.7904548155086,"Guerrero"
"Ometepec",16.7031658696116,-98.3224858258378,"Guerrero"
"San Luis Acatlán",16.9157588369241,-98.7070360369314,"Guerrero"
"Tlacoapa",17.2148256868963,-98.7885936822111,"Guerrero"
"Tlapa de Comonfort",17.4665934297849,-98.5718518988235,"Guerrero"
"Xalpatláhuac",17.4316083422804,-98.536846255704,"Guerrero"
"Xochihuehuetlán",17.9314040164938,-98.5367878309201,"Guerrero"
"Xochistlahuaca",16.8796451738918,-98.192404729197,"Guerrero"
"Zapotitlán Tablas",17.2662196598643,-98.8629542860748,"Guerrero"
"Acatepec",17.1495864697862,-98.9707514255032,"Guerrero"
"Marquelia",16.5665837159194,-98.7467112304215,"Guerrero"
"José Joaquín de Herrera",17.4499790024608,-98.9983004853085,"Guerrero"
"Juchitán",16.5527806577632,-98.6688212612047,"Guerrero"
"Iliatenco",17.0701233375414,-98.6459621680884,"Guerrero"
"Cuajinicuilapa",16.4698641823884,-98.5791280301235,"Guerrero"
"Tlacoachistlahuaca",16.9454908020418,-98.2640542155462,"Guerrero"
"Tlalixtaquilla de Maldonado",17.543546434082,-98.3861278299351,"Guerrero"
"Alcozauca de Guerrero",17.3545292442187,-98.3801876306731,"Guerrero"
"Metlatónoc",17.1065617742311,-98.4445585791866,"Guerrero"
"Cochoapa el Grande",17.0978542898968,-98.5157871812573,"Guerrero"
"Ahuacuotzingo",17.8000081028834,-98.9967783055918,"Guerrero"
"Petatlán",17.6118296326961,-101.25529210173,"Guerrero"
"Ajuchitlán del Progreso",17.9456546931306,-100.561912667362,"Guerrero"
"Arcelia",18.3152699187653,-100.170493174295,"Guerrero"
"Atoyac de Álvarez",17.1880031098855,-100.398202622766,"Guerrero"
"Benito Juárez",17.0759660319454,-100.362159765929,"Guerrero"
"Coahuayutla de José María Izazaga",18.2048341500993,-101.625473867796,"Guerrero"
"Cutzamala de Pinzón",18.7322371766816,-100.647502292665,"Guerrero"
"San Miguel Totolapan",17.8900963787134,-100.326773851417,"Guerrero"
"Técpan de Galeana",17.3693786631344,-100.799779445858,"Guerrero"
"Tlalchapa",18.4386519306853,-100.395163945233,"Guerrero"
"Tlapehuala",18.2629177354201,-100.475735900497,"Guerrero"
"Coyuca de Catalán",18.1674141268716,-101.01438582038,"Guerrero"
"Zirándaro",18.3605738784295,-101.197409483842,"Guerrero"
"La Unión de Isidoro Montes de Oca",18.0173893887557,-101.826886166819,"Guerrero"
"Ixcateopan de Cuauhtémoc",18.4691539654668,-99.8039790612522,"Guerrero"
"Pedro Ascencio Alquisiras",18.5173646644476,-99.8765231375914,"Guerrero"
"Pilcaya",18.7168375207489,-99.6285409910211,"Guerrero"
"Tetipac",18.6557960058075,-99.6951763629781,"Guerrero"
"Taxco de Alarcón",18.5333521393325,-99.5861469867106,"Guerrero"
"Buenavista de Cuéllar",18.4296539497304,-99.4052418423574,"Guerrero"
"Pungarabato",18.3509930457524,-100.628191856107,"Guerrero"
"Zihuatanejo de Azueta",17.7841031341212,-101.453508428461,"Guerrero"
"Acapulco de Juárez",16.8662346414486,-99.8587910017576,"Guerrero"
"Metepec",20.280486137555,-98.3502396776152,"Hidalgo"
"Almoloya",19.7519151363995,-98.3141784977499,"Hidalgo"
"Apan",19.7469939356504,-98.420232663634,"Hidalgo"
"Acatlán",20.2215644948028,-98.4453039326257,"Hidalgo"
"Acaxochitlán",20.1632812133341,-98.1837234495134,"Hidalgo"
"Actopan",20.334042965314,-98.8856403168668,"Hidalgo"
"Agua Blanca de Iturbide",20.3775740988521,-98.3520425628528,"Hidalgo"
"Alfajayucan",20.395659705362,-99.4028311419607,"Hidalgo"
"Atlapexco",21.0289925055574,-98.3601606754251,"Hidalgo"
"Atotonilco el Grande",20.3317776852292,-98.6614361926655,"Hidalgo"
"Calnali",20.9023123867245,-98.5475286891874,"Hidalgo"
"Cardonal",20.5796672096372,-99.0447910439498,"Hidalgo"
"Cuautepec de Hinojosa",19.9891596602074,-98.2866195797443,"Hidalgo"
"Chapulhuacán",21.1342436207105,-98.9398874684661,"Hidalgo"
"Epazoyucan",20.0546351363911,-98.6449410686387,"Hidalgo"
"Huasca de Ocampo",20.2506482080352,-98.5404768238696,"Hidalgo"
"Huautla",21.0298045354609,-98.2574266496166,"Hidalgo"
"Huazalingo",21.0009980259779,-98.4970690865042,"Hidalgo"
"Huehuetla",20.4993686243303,-98.0753211678163,"Hidalgo"
"Huejutla de Reyes",21.1460458698841,-98.4583597219764,"Hidalgo"
"Ixmiquilpan",20.5133600831275,-99.1895891293219,"Hidalgo"
"Jacala de Ledezma",20.949956188536,-99.1588790929107,"Hidalgo"
"Jaltocán",21.1504980709968,-98.5281729843288,"Hidalgo"
"Juárez Hidalgo",20.8356802044581,-98.8329347438727,"Hidalgo"
"Lolotla",20.9956435994107,-98.7291510809845,"Hidalgo"
"San Agustín Metzquititlán",20.5208950853199,-98.6008490622694,"Hidalgo"
"Mineral del Chico",20.2327479116902,-98.7496235809834,"Hidalgo"
"Mineral del Monte",20.14183307521,-98.6540545594977,"Hidalgo"
"La Misión",21.0675068253991,-99.0560031026984,"Hidalgo"
"Molango de Escamilla",20.8458922972487,-98.7589383356759,"Hidalgo"
"Nicolás Flores",20.8052296844358,-99.1711628553963,"Hidalgo"
"Omitlán de Juárez",20.1779056407952,-98.6219326570566,"Hidalgo"
"San Felipe Orizatlán",21.2704608132497,-98.5809963606022,"Hidalgo"
"Pacula",21.0073601779852,-99.3222289128827,"Hidalgo"
"Pisaflores",21.2316888812666,-98.9848340170927,"Hidalgo"
"Mineral de la Reforma",20.0800141965137,-98.7107218570814,"Hidalgo"
"San Bartolo Tutotepec",20.4623741545487,-98.2036567514817,"Hidalgo"
"Santiago de Anaya",20.4129782270594,-99.0015341627868,"Hidalgo"
"Santiago Tulantepec de Lugo Guerrero",20.0438424621647,-98.384104976617,"Hidalgo"
"Singuilucan",19.994680529388,-98.4951915383159,"Hidalgo"
"Tasquillo",20.5369772970614,-99.3668057450224,"Hidalgo"
"Tenango de Doria",20.3489297677289,-98.2069030400546,"Hidalgo"
"Tepehuacán de Guerrero",21.0661630280276,-98.8181917042801,"Hidalgo"
"Tianguistengo",20.7621499672098,-98.5708842507441,"Hidalgo"
"Tlahuiltepa",20.8224588059091,-98.9860919526366,"Hidalgo"
"Tlanchinol",21.0389796175599,-98.6317590146867,"Hidalgo"
"Xochiatipan",20.8427060331269,-98.2787789626625,"Hidalgo"
"Xochicoatlán",20.7890574683545,-98.6341399205818,"Hidalgo"
"Yahualica",20.9111094676048,-98.3880633248235,"Hidalgo"
"Zacualtipán de Ángeles",20.6590164497769,-98.5642431906678,"Hidalgo"
"Zimapán",20.7781997001563,-99.3619692309664,"Hidalgo"
"Tlanalapa",19.8415118487509,-98.588013441862,"Hidalgo"
"Emiliano Zapata",19.65586538412,-98.6157179765336,"Hidalgo"
"Tecozautla",20.5375788350232,-99.6322207745189,"Hidalgo"
"Eloxochitlán",20.7197714843767,-98.8871099797946,"Hidalgo"
"Metztitlán",20.5465684442803,-98.8229003368778,"Hidalgo"
"Huichapan",20.3929169715541,-99.6274723392875,"Hidalgo"
"Tepeapulco",19.8065998657478,-98.5067351019398,"Hidalgo"
"Zempoala",19.9224677651762,-98.6844808777416,"Hidalgo"
"Tizayuca",19.8582557617337,-98.9459724798222,"Hidalgo"
"Tolcayuca",19.9712547768143,-98.9269039633814,"Hidalgo"
"San Agustín Tlaxiaca",20.0849011897376,-98.9445716311878,"Hidalgo"
"Villa de Tezontepec",19.9112474448859,-98.7796510382087,"Hidalgo"
"Mixquiahuala de Juárez",20.2495947359544,-99.1903012966072,"Hidalgo"
"Tezontepec de Aldama",20.1993444434607,-99.3024751078738,"Hidalgo"
"Tlahuelilpan",20.1328933573373,-99.2171875115394,"Hidalgo"
"Tlaxcoapan",20.0984960486194,-99.2144201063812,"Hidalgo"
"Nopala de Villagrán",20.2519762817544,-99.6534749960593,"Hidalgo"
"Chapantongo",20.2649437182428,-99.4382835234844,"Hidalgo"
"Tepeji del Río de Ocampo",19.9050201398355,-99.3561865398938,"Hidalgo"
"Tula de Allende",20.0433765454218,-99.3732252459673,"Hidalgo"
"Atitalaquia",20.0541913503334,-99.2013770414988,"Hidalgo"
"Atotonilco de Tula",19.9726762105882,-99.2387972467611,"Hidalgo"
"Tepetitlán",20.1972252141607,-99.3919158575723,"Hidalgo"
"El Arenal",20.2216019579296,-98.8787055985338,"Hidalgo"
"Chilcuautla",20.3265679003924,-99.2609852880028,"Hidalgo"
"Francisco I. Madero",20.2452835173165,-99.0836519618755,"Hidalgo"
"Pachuca de Soto",20.1001680274268,-98.7746145252488,"Hidalgo"
"Progreso de Obregón",20.3097618351717,-99.1823868376669,"Hidalgo"
"San Salvador",20.3045285186121,-99.0676357051938,"Hidalgo"
"Zapotlán de Juárez",20.0192297023695,-98.8633867630351,"Hidalgo"
"Tetepango",20.1108576174784,-99.1654652515732,"Hidalgo"
"Ajacuba",20.1103966712216,-99.0699489130041,"Hidalgo"
"Tulancingo de Bravo",20.106562815101,-98.3647554625523,"Hidalgo"
"Acatic",20.7649761703186,-102.897200990576,"Jalisco"
"Acatlán de Juárez",20.4352545575529,-103.611719619507,"Jalisco"
"Ahualulco de Mercado",20.722248329047,-103.900344923042,"Jalisco"
"Amacueca",20.0050600731136,-103.620126832519,"Jalisco"
"Amatitán",20.8605444681223,-103.706627438305,"Jalisco"
"Ameca",20.5456571334431,-104.087242544557,"Jalisco"
"San Juanito de Escobedo",20.8152605124436,-104.014497594502,"Jalisco"
"Arandas",20.7256923670127,-102.316775799174,"Jalisco"
"El Arenal",20.753961025722,-103.665541903513,"Jalisco"
"Atemajac de Brizuela",20.1787535935892,-103.740736740255,"Jalisco"
"Atengo",20.3206458185252,-104.254443926315,"Jalisco"
"Atenguillo",20.3500786745493,-104.544279495774,"Jalisco"
"Atotonilco el Alto",20.5714707374187,-102.553972618035,"Jalisco"
"Atoyac",19.9824276921656,-103.43740154718,"Jalisco"
"Autlán de Navarro",19.7482324702061,-104.329216228151,"Jalisco"
"Ayotlán",20.5012057965357,-102.328466878163,"Jalisco"
"Ayutla",20.0873272103606,-104.413704216524,"Jalisco"
"La Barca",20.3467979976596,-102.52226095559,"Jalisco"
"Bolaños",21.8932249159395,-103.879434379111,"Jalisco"
"Cabo Corrientes",20.3692360706062,-105.390469715939,"Jalisco"
"Casimiro Castillo",19.6210818401952,-104.477622183766,"Jalisco"
"Cihuatlán",19.2572426098779,-104.640306914327,"Jalisco"
"Zapotlán el Grande",19.7194459922712,-103.511022818965,"Jalisco"
"Cocula",20.3988249089529,-103.833130765691,"Jalisco"
"Colotlán",22.0825061023764,-103.289347131828,"Jalisco"
"Concepción de Buenos Aires",19.9790427512474,-103.238367146711,"Jalisco"
"Cuautitlán de García Barragán",19.4108573206194,-104.357982913049,"Jalisco"
"Cuautla",20.1919269003615,-104.519952194485,"Jalisco"
"Cuquío",20.9531730964017,-103.018293830659,"Jalisco"
"Chapala",20.2680986836056,-103.201408429727,"Jalisco"
"Chimaltitán",21.7592349028534,-103.698831180098,"Jalisco"
"Chiquilistlán",20.068227114196,-103.888447445412,"Jalisco"
"Degollado",20.4736001333971,-102.126331665628,"Jalisco"
"Ejutla",19.9158389962735,-104.070149804751,"Jalisco"
"Encarnación de Díaz",21.4948025718852,-102.262772402293,"Jalisco"
"Etzatlán",20.7623754223967,-104.127885668764,"Jalisco"
"El Grullo",19.7919707163582,-104.18872389078,"Jalisco"
"Guachinango",20.6784948152331,-104.413588300805,"Jalisco"
"Guadalajara",20.6708775928674,-103.33448187721,"Jalisco"
"Hostotipaquillo",21.0404769364663,-104.081625551345,"Jalisco"
"Huejúcar",22.3071736888738,-103.223172288391,"Jalisco"
"Huejuquilla el Alto",22.5760143524831,-103.915799577376,"Jalisco"
"La Huerta",19.4641314639584,-104.925798542241,"Jalisco"
"Ixtlahuacán de los Membrillos",20.3924120992668,-103.201120648637,"Jalisco"
"Ixtlahuacán del Río",20.9418708938061,-103.216380863911,"Jalisco"
"Jalostotitlán",21.1954683693189,-102.48511465196,"Jalisco"
"Jamay",20.2900684369917,-102.667918975899,"Jalisco"
"Jesús María",20.6144764890177,-102.133543424308,"Jalisco"
"Jilotlán de los Dolores",19.3666772525048,-102.934975628208,"Jalisco"
"Jocotepec",20.2955496622912,-103.392794693495,"Jalisco"
"Juanacatlán",20.4865675562104,-103.138265842456,"Jalisco"
"Juchitlán",20.0564389244601,-104.04779967753,"Jalisco"
"Lagos de Moreno",21.4723633699585,-101.917583622502,"Jalisco"
"El Limón",19.8445344419244,-104.085012351804,"Jalisco"
"Magdalena",20.9112613098937,-104.086066181033,"Jalisco"
"Santa María del Oro",19.5331482552719,-102.835616392177,"Jalisco"
"La Manzanilla de la Paz",20.0251135503254,-103.077985075329,"Jalisco"
"Mascota",20.6104716868643,-104.883982115318,"Jalisco"
"Mazamitla",19.8950601845332,-103.0779259189,"Jalisco"
"Mexticacán",21.2427625317267,-102.764385235253,"Jalisco"
"Mezquitic",22.2155237350538,-104.01776352637,"Jalisco"
"Mixtlán",20.5079557253847,-104.453837299264,"Jalisco"
"Ocotlán",20.4122554175541,-102.719745559828,"Jalisco"
"Ojuelos de Jalisco",21.7662527539716,-101.727131602629,"Jalisco"
"Pihuamo",19.1539252777389,-103.387018381987,"Jalisco"
"Poncitlán",20.2764904633803,-102.94223214325,"Jalisco"
"Puerto Vallarta",20.6621712786083,-105.162109066066,"Jalisco"
"Villa Purificación",19.8329115415896,-104.743963819249,"Jalisco"
"Quitupan",19.7637610543546,-102.887134184632,"Jalisco"
"El Salto",20.5340201236121,-103.258514431681,"Jalisco"
"San Cristóbal de la Barranca",21.040350156258,-103.518664423789,"Jalisco"
"San Diego de Alejandría",20.95972926498,-102.037524627333,"Jalisco"
"San Juan de los Lagos",21.265671549561,-102.297644893164,"Jalisco"
"San Julián",20.9945906983549,-102.17608039244,"Jalisco"
"San Marcos",20.8398249174066,-104.227358263436,"Jalisco"
"San Martín de Bolaños",21.5978646118367,-103.757341772861,"Jalisco"
"San Martín Hidalgo",20.448161738217,-103.893205704407,"Jalisco"
"San Miguel el Alto",20.9947710783109,-102.41230786558,"Jalisco"
"Gómez Farías",19.8536753071923,-103.411462588384,"Jalisco"
"San Sebastián del Oeste",20.822036933783,-104.834736642276,"Jalisco"
"Santa María de los Ángeles",22.2014524580155,-103.187242038822,"Jalisco"
"Sayula",19.8570028687927,-103.598527207428,"Jalisco"
"Tala",20.6176585730004,-103.690026460048,"Jalisco"
"Talpa de Allende",20.3545504674524,-105.005037062126,"Jalisco"
"Tamazula de Gordiano",19.6360338734759,-103.178340574982,"Jalisco"
"Tapalpa",19.9268697861596,-103.770983760119,"Jalisco"
"Tecalitlán",19.2923422712535,-103.216688962667,"Jalisco"
"Tecolotlán",20.2723229318194,-104.055092651568,"Jalisco"
"Techaluta de Montenegro",20.0914691189042,-103.586566403616,"Jalisco"
"Tenamaxtlán",20.1410706914508,-104.169021107607,"Jalisco"
"Teocaltiche",21.5080398380633,-102.539730619265,"Jalisco"
"Teocuitatlán de Corona",20.0995172189668,-103.338173842917,"Jalisco"
"Tepatitlán de Morelos",20.8092943488981,-102.733408566517,"Jalisco"
"Tequila",21.1350368265952,-103.7475494651,"Jalisco"
"Teuchitlán",20.6909172089583,-103.827061351195,"Jalisco"
"Tizapán el Alto",20.1177680308596,-103.079395891049,"Jalisco"
"Tlajomulco de Zúñiga",20.5158670703141,-103.397182606205,"Jalisco"
"San Pedro Tlaquepaque",20.5872416426956,-103.357346107808,"Jalisco"
"Tolimán",19.5697069618023,-103.885540149779,"Jalisco"
"Tomatlán",20.011157391917,-105.031706016466,"Jalisco"
"Tonalá",20.6227178375949,-103.227994041983,"Jalisco"
"Tonaya",19.8550073140406,-103.939065885939,"Jalisco"
"Tonila",19.419347146747,-103.536375131264,"Jalisco"
"Totatiche",21.9591875721395,-103.496239926632,"Jalisco"
"Tototlán",20.5526185561357,-102.723377827525,"Jalisco"
"Tuxcacuesco",19.696693522652,-104.015266259493,"Jalisco"
"Tuxcueca",20.1523680748561,-103.230095801976,"Jalisco"
"Tuxpan",19.4454015356027,-103.456054166302,"Jalisco"
"Unión de San Antonio",21.1769805654236,-102.055128663182,"Jalisco"
"Unión de Tula",20.0186390751753,-104.244841662993,"Jalisco"
"Valle de Guadalupe",21.0642014209185,-102.657016923677,"Jalisco"
"Valle de Juárez",19.78712569455,-102.978110001358,"Jalisco"
"San Gabriel",19.7144240281032,-103.748699576583,"Jalisco"
"Villa Corona",20.4234770238024,-103.726935660031,"Jalisco"
"Villa Guerrero",21.9988375311925,-103.709693833348,"Jalisco"
"Villa Hidalgo",21.6369610484366,-102.593259240804,"Jalisco"
"Cañadas de Obregón",21.1593472589735,-102.677393871553,"Jalisco"
"Yahualica de González Gallo",21.1291239155838,-102.910331270384,"Jalisco"
"Zacoalco de Torres",20.2316778393062,-103.579943419778,"Jalisco"
"Zapopan",20.751591379402,-103.515770410291,"Jalisco"
"Zapotiltic",19.6048359731495,-103.319615013584,"Jalisco"
"Zapotitlán de Vadillo",19.5033546711695,-103.75646597552,"Jalisco"
"Zapotlán del Rey",20.4716860199355,-102.927926718031,"Jalisco"
"Zapotlanejo",20.6350635655484,-103.045364461218,"Jalisco"
"San Ignacio Cerro Gordo",20.7813600114156,-102.510972159423,"Jalisco"
"Acambay de Ruíz Castañeda",19.9749178988671,-99.8041921961096,"Estado de México"
"Aculco",20.13055625034,-99.8318959640618,"Estado de México"
"Almoloya de Alquisiras",18.8302025335723,-99.8679228818263,"Estado de México"
"Almoloya de Juárez",19.3923800181017,-99.8034413269476,"Estado de México"
"Almoloya del Río",19.1584813389468,-99.4897810940893,"Estado de México"
"Amanalco",19.2530383060013,-100.015796068592,"Estado de México"
"Amatepec",18.7268154862658,-100.220752158528,"Estado de México"
"Atizapán",19.1773663003149,-99.5009898412312,"Estado de México"
"Atlacomulco",19.8146627462227,-99.860752904151,"Estado de México"
"Calimaya",19.169825670719,-99.618840438874,"Estado de México"
"Capulhuac",19.2035314112538,-99.4662495354816,"Estado de México"
"Coatepec Harinas",18.91216423307,-99.7824823157686,"Estado de México"
"Chapa de Mota",19.8224878714338,-99.5355442577432,"Estado de México"
"Chapultepec",19.2035031189276,-99.5527807853911,"Estado de México"
"Donato Guerra",19.3047984524136,-100.17778289737,"Estado de México"
"Isidro Fabela",19.5604080517585,-99.4129640521014,"Estado de México"
"Ixtapan de la Sal",18.8400184907611,-99.6959463932248,"Estado de México"
"Ixtapan del Oro",19.2607474792647,-100.268894792967,"Estado de México"
"Ixtlahuaca",19.5896860993477,-99.7819552528313,"Estado de México"
"Xalatlaco",19.1720634903885,-99.3954277839511,"Estado de México"
"Jilotepec",20.0072538283191,-99.6220492239375,"Estado de México"
"Jilotzingo",19.5104981305042,-99.3757204907157,"Estado de México"
"Jiquipilco",19.5859292848654,-99.6521179765735,"Estado de México"
"Jocotitlán",19.7208124371542,-99.8234263199877,"Estado de México"
"Joquicingo",19.051531685124,-99.5212624710528,"Estado de México"
"Lerma",19.3302484715194,-99.4731286522165,"Estado de México"
"Malinalco",18.9136481595423,-99.4859148950098,"Estado de México"
"Metepec",19.2482486597141,-99.5940630714723,"Estado de México"
"Mexicaltzingo",19.2103304721912,-99.5847455799253,"Estado de México"
"Morelos",19.7262349787922,-99.6373930353172,"Estado de México"
"Nicolás Romero",19.6294308456899,-99.3693441215955,"Estado de México"
"Ocoyoacac",19.2621925830153,-99.4255448699458,"Estado de México"
"Ocuilan",18.9862834289033,-99.4291090267019,"Estado de México"
"El Oro",19.7873316593207,-100.071866517874,"Estado de México"
"Otzoloapan",19.1006852064114,-100.312405626796,"Estado de México"
"Otzolotepec",19.4453344672298,-99.5351223325189,"Estado de México"
"Polotitlán",20.2090859697085,-99.8279846975502,"Estado de México"
"Rayón",19.1423690712562,-99.5735726090032,"Estado de México"
"San Antonio la Isla",19.1639242992511,-99.54959645247,"Estado de México"
"San Felipe del Progreso",19.6545090862808,-99.9899516550085,"Estado de México"
"San Mateo Atenco",19.2656125146957,-99.5429020593019,"Estado de México"
"San Simón de Guerrero",18.9814185449965,-100.036759719861,"Estado de México"
"Santo Tomás",19.1788628917326,-100.272937591546,"Estado de México"
"Soyaniquilpan de Juárez",20.0376738506323,-99.5180522358566,"Estado de México"
"Sultepec",18.7325269317887,-100.013176259475,"Estado de México"
"Tejupilco",18.8681083319968,-100.225665787782,"Estado de México"
"Temascalcingo",19.9243450669553,-100.024973739869,"Estado de México"
"Temascaltepec",19.0779189606122,-100.050215402584,"Estado de México"
"Temoaya",19.4798286740646,-99.6178411828608,"Estado de México"
"Tenancingo",18.9488255714668,-99.5684117339746,"Estado de México"
"Tenango del Valle",19.088388535659,-99.611419380315,"Estado de México"
"Tepotzotlán",19.7173501947839,-99.3151705545759,"Estado de México"
"Texcaltitlán",18.9295043233726,-99.9393844133434,"Estado de México"
"Texcalyacac",19.1303867427387,-99.5079498243502,"Estado de México"
"Tianguistenco",19.1779092218194,-99.4370416495631,"Estado de México"
"Timilpan",19.9722668928204,-99.7143857941468,"Estado de México"
"Tlatlaya",18.5296028849824,-100.235281843507,"Estado de México"
"Toluca",19.321562618717,-99.6800323354475,"Estado de México"
"Tonatico",18.7832366656668,-99.6343690414887,"Estado de México"
"Valle de Bravo",19.1742057721928,-100.120351492298,"Estado de México"
"Villa de Allende",19.3767521620064,-100.123389099683,"Estado de México"
"Villa del Carbón",19.7382647923136,-99.4829808650446,"Estado de México"
"Villa Guerrero",18.932706116514,-99.6635025443591,"Estado de México"
"Villa Victoria",19.436565632425,-99.9969916000122,"Estado de México"
"Xonacatlán",19.436681196566,-99.4765817125748,"Estado de México"
"Zacazonapan",19.0594267303644,-100.250166130424,"Estado de México"
"Zacualpan",18.6954732927865,-99.8264984889389,"Estado de México"
"Zinacantepec",19.2500033268384,-99.790965656062,"Estado de México"
"Zumpahuacán",18.8113002145714,-99.5675628399606,"Estado de México"
"Luvianos",18.9560033918855,-100.389210335045,"Estado de México"
"San José del Rincón",19.646725118596,-100.116627622391,"Estado de México"
"Acolman",19.6327860978649,-98.9209471905606,"Estado de México"
"Amecameca",19.1116305432062,-98.7511027216727,"Estado de México"
"Apaxco",19.9728368945909,-99.1544895313236,"Estado de México"
"Atenco",19.5562182457451,-98.9496875512407,"Estado de México"
"Atizapán de Zaragoza",19.5606807777114,-99.2702146599069,"Estado de México"
"Atlautla",19.0283324195804,-98.7611041488283,"Estado de México"
"Axapusco",19.7571950873055,-98.7297119716609,"Estado de México"
"Ayapango",19.1272227604647,-98.81655939102,"Estado de México"
"Coacalco de Berriozábal",19.6316109041632,-99.0993814584276,"Estado de México"
"Cocotitlán",19.2226615449185,-98.8574132583012,"Estado de México"
"Coyotepec",19.7860818479714,-99.2197506108826,"Estado de México"
"Cuautitlán",19.707333453306,-99.166319684878,"Estado de México"
"Chalco",19.2540454100838,-98.8356725866113,"Estado de México"
"Chiautla",19.5689106894646,-98.8839619208542,"Estado de México"
"Chicoloapan",19.40568185692,-98.8858884436742,"Estado de México"
"Chiconcuac",19.553927521932,-98.895144087884,"Estado de México"
"Chimalhuacán",19.4077854291304,-98.9415471228133,"Estado de México"
"Ecatepec de Morelos",19.5847132594213,-99.0511074024772,"Estado de México"
"Ecatzingo",18.9692050720183,-98.7584512749426,"Estado de México"
"Huehuetoca",19.8031705990187,-99.2833931367883,"Estado de México"
"Hueypoxtla",19.9670950599245,-99.0368497206815,"Estado de México"
"Huixquilucan",19.3998780432087,-99.3187711733542,"Estado de México"
"Ixtapaluca",19.3346776367321,-98.8022918056029,"Estado de México"
"Jaltenco",19.7152393020575,-99.0825670613755,"Estado de México"
"Juchitepec",19.1060500015928,-98.8901336251723,"Estado de México"
"Melchor Ocampo",19.7052446426378,-99.1327084410142,"Estado de México"
"Naucalpan de Juárez",19.4675838289837,-99.2994908035308,"Estado de México"
"Nezahualcóyotl",19.4171363193581,-99.0198532537377,"Estado de México"
"Nextlalpan",19.7336294694474,-99.077353363323,"Estado de México"
"Nopaltepec",19.8154199699037,-98.708492897652,"Estado de México"
"Otumba",19.6676088342117,-98.7636929123889,"Estado de México"
"Ozumba",19.0083552392545,-98.8095179622335,"Estado de México"
"Papalotla",19.5603698945334,-98.859180174896,"Estado de México"
"La Paz",19.3651093957912,-98.9533850181781,"Estado de México"
"San Martín de las Pirámides",19.6977817950115,-98.818985798432,"Estado de México"
"Tecámac",19.7103737779949,-98.9946489063349,"Estado de México"
"Temamatla",19.1973723827424,-98.8775055730423,"Estado de México"
"Temascalapa",19.8147016786428,-98.8784862115976,"Estado de México"
"Tenango del Aire",19.1520692636348,-98.8655089645141,"Estado de México"
"Teoloyucan",19.7553085770365,-99.177306978432,"Estado de México"
"Teotihuacán",19.6866629341293,-98.866836865305,"Estado de México"
"Tepetlaoxtoc",19.5638318360752,-98.7708511601162,"Estado de México"
"Tepetlixpa",19.0034714066829,-98.8326458838833,"Estado de México"
"Tequixquiac",19.9076898677012,-99.1435608924051,"Estado de México"
"Texcoco",19.4719651177423,-98.8340242862377,"Estado de México"
"Tezoyuca",19.5976675749734,-98.934022531494,"Estado de México"
"Tlalmanalco",19.2073823584912,-98.7673503535824,"Estado de México"
"Tlalnepantla de Baz",19.5405924510873,-99.1761665193519,"Estado de México"
"Tultepec",19.6811182803526,-99.1177624148314,"Estado de México"
"Zumpango",19.8120718915113,-99.0712673026846,"Estado de México"
"Cuautitlán Izcalli",19.654492269235,-99.2323656983341,"Estado de México"
"Valle de Chalco Solidaridad",19.290693200563,-98.9401980963094,"Estado de México"
"Tonanitla",19.6831504823783,-99.0563512923758,"Estado de México"
"Tultitlán",19.6375138406942,-99.1344426942314,"Estado de México"
"Zamora",20.0175101990741,-102.276502873766,"Michoacán"
"Tangancícuaro",19.8748262097155,-102.260434261452,"Michoacán"
"Lázaro Cárdenas",18.0990404730141,-102.462360821156,"Michoacán"
"Aquila",18.3883672785967,-103.309769105198,"Michoacán"
"Arteaga",18.3380171576339,-102.407364704897,"Michoacán"
"Tumbiscatío",18.5165543910611,-102.52238182562,"Michoacán"
"San Lucas",18.5704602804268,-100.755550758262,"Michoacán"
"Coahuayana",18.7569763729686,-103.604155419092,"Michoacán"
"Huetamo",18.6294278177422,-101.140954516845,"Michoacán"
"Churumuco",18.7213577107522,-101.581036603937,"Michoacán"
"Chinicuila",18.7570719135273,-103.389837884595,"Michoacán"
"Coalcomán de Vázquez Pallares",18.650523786121,-103.06860442994,"Michoacán"
"Aguililla",18.8032170614522,-102.767329944046,"Michoacán"
"La Huacana",18.875679191268,-101.959731057951,"Michoacán"
"Múgica",18.9954589992042,-102.106605459454,"Michoacán"
"Turicato",19.0096003094975,-101.445992089494,"Michoacán"
"Carácuaro",19.0082325786349,-101.06349404293,"Michoacán"
"Tepalcatepec",19.0337404449932,-102.812048531581,"Michoacán"
"Apatzingán",18.9739434793862,-102.37716484548,"Michoacán"
"Parácuaro",19.095183122468,-102.195021161858,"Michoacán"
"Nocupétaro",19.0838261867304,-101.218365089047,"Michoacán"
"Nuevo Urecho",19.2001427745704,-101.855437934529,"Michoacán"
"Gabriel Zamora",19.1361237277073,-102.040951243558,"Michoacán"
"Ario",19.1707288051344,-101.711812293989,"Michoacán"
"Susupuato",19.1934773036027,-100.42522823765,"Michoacán"
"Tiquicheo de Nicolás Romero",19.0496725313779,-100.778675508424,"Michoacán"
"Juárez",19.2927931987631,-100.442419059921,"Michoacán"
"Taretan",19.3309554605645,-101.910186744321,"Michoacán"
"Buenavista",19.2091580012203,-102.594349030554,"Michoacán"
"Tacámbaro",19.1996185573685,-101.482676521455,"Michoacán"
"Tuzantla",19.2065875163974,-100.589917795083,"Michoacán"
"Salvador Escalante",19.3837853270866,-101.724914678187,"Michoacán"
"Ziracuaretiro",19.3998849267429,-101.910012012948,"Michoacán"
"Nuevo Parangaricutiro",19.3915062370164,-102.175468127216,"Michoacán"
"Tancítaro",19.3321733271176,-102.327271941501,"Michoacán"
"Jungapeo",19.4372953347589,-100.507313900834,"Michoacán"
"Madero",19.3727715318046,-101.156864901989,"Michoacán"
"Acuitzio",19.4758274284223,-101.347854333066,"Michoacán"
"Zitácuaro",19.4450023263,-100.356404364489,"Michoacán"
"Huiramba",19.5126644817032,-101.46945463266,"Michoacán"
"Pátzcuaro",19.5129141361784,-101.631024608921,"Michoacán"
"Peribán",19.5142040878264,-102.459962397468,"Michoacán"
"Tingambato",19.5292352605051,-101.843964811942,"Michoacán"
"Uruapan",19.4195713808216,-102.127485244349,"Michoacán"
"Lagunillas",19.5776348210858,-101.412242921932,"Michoacán"
"Ocampo",19.5807182510282,-100.329912738624,"Michoacán"
"Tuxpan",19.5573606019032,-100.476371420014,"Michoacán"
"Tzintzuntzan",19.6071699448366,-101.539323519549,"Michoacán"
"Tzitzio",19.4660623518485,-100.935714746964,"Michoacán"
"Angangueo",19.6285363810474,-100.310994199832,"Michoacán"
"Aporo",19.6553144306157,-100.389555566066,"Michoacán"
"Erongarícuaro",19.6130887845118,-101.709891710785,"Michoacán"
"Paracho",19.6455746899103,-102.08922345517,"Michoacán"
"Nahuatzen",19.6380009392079,-101.890913754362,"Michoacán"
"Quiroga",19.6819333293893,-101.552165632968,"Michoacán"
"Irimbo",19.7101030491149,-100.467469608747,"Michoacán"
"Charo",19.6975117605202,-101.029017114482,"Michoacán"
"Cherán",19.7160422740743,-101.992665284062,"Michoacán"
"Los Reyes",19.6368905498485,-102.401180546341,"Michoacán"
"Charapan",19.6752494614072,-102.22930259867,"Michoacán"
"Senguio",19.7591800532652,-100.328460263221,"Michoacán"
"Queréndaro",19.7182938004612,-100.84237324558,"Michoacán"
"Tocumbo",19.6580426628767,-102.600201374999,"Michoacán"
"Morelia",19.6025806517172,-101.279447439449,"Michoacán"
"Tlalpujahua",19.8011871852144,-100.215618122008,"Michoacán"
"Hidalgo",19.6170724212045,-100.689297204841,"Michoacán"
"Indaparapeo",19.7665794830905,-100.937756789248,"Michoacán"
"Tarímbaro",19.8200288336686,-101.152763186829,"Michoacán"
"Tingüindín",19.7885241563317,-102.5129981323,"Michoacán"
"Cotija",19.7521691128636,-102.698805782193,"Michoacán"
"Chilchota",19.8173236325808,-102.10947188509,"Michoacán"
"Coeneo",19.7867431654682,-101.630354012987,"Michoacán"
"Zinapécuaro",19.8513642525645,-100.760792240557,"Michoacán"
"Huaniqueo",19.8737805026206,-101.528479381256,"Michoacán"
"Álvaro Obregón",19.8422342228021,-101.043017622267,"Michoacán"
"Chucándiro",19.9075093207229,-101.355180003337,"Michoacán"
"Copándaro",19.8998862655699,-101.211617905558,"Michoacán"
"Jiménez",19.9261645142234,-101.70921936782,"Michoacán"
"Purépero",19.9152058825425,-101.967346119093,"Michoacán"
"Zacapu",19.8598934322692,-101.851745657718,"Michoacán"
"Tangamandapio",19.8847253186976,-102.456901275793,"Michoacán"
"Jacona",19.9411162527376,-102.302378787996,"Michoacán"
"Maravatío",19.8941727450496,-100.366784382156,"Michoacán"
"Huandacareo",19.9820117072447,-101.282595098212,"Michoacán"
"Morelos",19.9971526310865,-101.409527095545,"Michoacán"
"Cuitzeo",19.9587838032027,-101.12157676432,"Michoacán"
"Santa Ana Maya",20.0303971217526,-101.01994195382,"Michoacán"
"Contepec",19.9751553437562,-100.22743112349,"Michoacán"
"Jiquilpan",19.9914874996406,-102.775432151846,"Michoacán"
"Tlazazalca",20.0109329507681,-102.045858276045,"Michoacán"
"Villamar",20.0015901356037,-102.579838970149,"Michoacán"
"Marcos Castellanos",20.0395787136018,-102.991600788176,"Michoacán"
"Sahuayo",20.0494635887146,-102.784571117843,"Michoacán"
"Panindícuaro",20.0068858576889,-101.780841402727,"Michoacán"
"Chavinda",20.0362150864568,-102.438413780116,"Michoacán"
"Cojumatlán de Régules",20.1067821218307,-102.86381655359,"Michoacán"
"Penjamillo",20.1058259457119,-101.902861788398,"Michoacán"
"Angamacutiro",20.139316466262,-101.725293198906,"Michoacán"
"Ixtlán",20.1575291582319,-102.40285837905,"Michoacán"
"Churintzio",20.1425838451725,-102.078223674792,"Michoacán"
"Venustiano Carranza",20.1483345285504,-102.660907575286,"Michoacán"
"Pajacuarán",20.1452994195728,-102.530892842272,"Michoacán"
"Epitacio Huerta",20.1157926336747,-100.283980330306,"Michoacán"
"Zináparo",20.1799144992167,-102.008983194862,"Michoacán"
"Ecuandureo",20.1666930131269,-102.250066901015,"Michoacán"
"Puruándiro",20.1460050793144,-101.522101117455,"Michoacán"
"Briseñas",20.2435554897466,-102.590520925547,"Michoacán"
"Numarán",20.2538398187438,-101.960507362361,"Michoacán"
"Vista Hermosa",20.2751531676796,-102.458298409619,"Michoacán"
"José Sixto Verduzco",20.2569937494396,-101.554866345138,"Michoacán"
"Tanhuato",20.2704239671179,-102.335760590788,"Michoacán"
"Yurécuaro",20.3132357726996,-102.230248253702,"Michoacán"
"La Piedad",20.3150313696472,-102.083484468203,"Michoacán"
"Amacuzac",18.6213019089014,-99.3873901978372,"Morelos"
"Atlatlahucan",18.9292264694476,-98.9032762205952,"Morelos"
"Axochiapan",18.5255414341956,-98.7446718118769,"Morelos"
"Ayala",18.713638183875,-98.9649099694035,"Morelos"
"Coatlán del Río",18.7101296255994,-99.4476208894495,"Morelos"
"Cuautla",18.8285129155036,-98.9421148443574,"Morelos"
"Cuernavaca",18.898115759464,-99.236270679189,"Morelos"
"Emiliano Zapata",18.8347234660688,-99.198095615374,"Morelos"
"Huitzilac",19.0243421090578,-99.2568979615878,"Morelos"
"Jantetelco",18.6793795518515,-98.7557072272019,"Morelos"
"Jiutepec",18.8894676431114,-99.1811259465771,"Morelos"
"Jojutla",18.6023542678391,-99.2165015385823,"Morelos"
"Jonacatepec",18.6561430288489,-98.7977619669606,"Morelos"
"Mazatepec",18.6990846225082,-99.3673772448888,"Morelos"
"Miacatlán",18.7929254543897,-99.3395989743836,"Morelos"
"Ocuituco",18.878014106998,-98.7813718383295,"Morelos"
"Puente de Ixtla",18.6091422008087,-99.286123563573,"Morelos"
"Temixco",18.8436211871748,-99.2555081458954,"Morelos"
"Tepalcingo",18.5740180148267,-98.8756643200066,"Morelos"
"Tepoztlán",18.928787089395,-99.1126098168077,"Morelos"
"Tetecala",18.6902782471907,-99.4056992174882,"Morelos"
"Tetela del Volcán",18.8884728160374,-98.713120138395,"Morelos"
"Tlalnepantla",19.0185573723272,-98.9643002815102,"Morelos"
"Tlaltizapán de Zapata",18.680491712813,-99.1080395797466,"Morelos"
"Tlaquiltenango",18.4755146329442,-99.0689888771906,"Morelos"
"Tlayacapan",18.948881803534,-98.9688187388138,"Morelos"
"Totolapan",18.9896206873056,-98.9293217609752,"Morelos"
"Xochitepec",18.7813211375594,-99.224726041056,"Morelos"
"Yautepec",18.87806262032,-99.0328362668241,"Morelos"
"Yecapixtla",18.8491335867461,-98.8599327999414,"Morelos"
"Zacatepec",18.6515183485752,-99.2004112665061,"Morelos"
"Zacualpan",18.8114896578669,-98.7405343640748,"Morelos"
"Temoac",18.7590544428615,-98.785308700993,"Morelos"
"Acaponeta",22.4619067939767,-105.305423868372,"Nayarit"
"Ahuacatlán",21.078496808818,-104.583370253893,"Nayarit"
"Amatlán de Cañas",20.788632384502,-104.374555799347,"Nayarit"
"Huajicori",22.8332338659538,-105.240274030111,"Nayarit"
"Ixtlán del Río",21.0509785902999,-104.302487839903,"Nayarit"
"Jala",21.1680656018299,-104.394009237273,"Nayarit"
"Xalisco",21.388625742372,-104.936008621616,"Nayarit"
"Del Nayar",22.2253781833658,-104.607319485857,"Nayarit"
"Ruíz",21.9662931261309,-105.012214308348,"Nayarit"
"San Pedro Lagunillas",21.1506150803255,-104.739499756637,"Nayarit"
"Santa María del Oro",21.3133922269502,-104.592788111673,"Nayarit"
"Tecuala",22.3900987478809,-105.53368015589,"Nayarit"
"Tepic",21.5978399081388,-104.8826416643,"Nayarit"
"Tuxpan",21.9495639568953,-105.318044715022,"Nayarit"
"La Yesca",21.55644544591,-104.035477962302,"Nayarit"
"Bahía de Banderas",20.8210382263116,-105.32687831593,"Nayarit"
"Compostela",21.1292733364921,-105.086942617474,"Nayarit"
"Santiago Ixcuintla",21.8199655296435,-105.286614190565,"Nayarit"
"San Blas",21.5475838141966,-105.887292961703,"Nayarit"
"Rosamorada",22.1019809497102,-105.198229710008,"Nayarit"
"Agualeguas",26.3143465092838,-99.6759847469231,"Nuevo León"
"General Treviño",26.2245214512814,-99.4494101946393,"Nuevo León"
"Los Aldamas",25.9610191626919,-99.2375003064486,"Nuevo León"
"Doctor Coss",26.0449446050985,-99.1196784736374,"Nuevo León"
"General Bravo",25.7722583712988,-99.0128654400272,"Nuevo León"
"Parás",26.7783836202664,-99.62037390355,"Nuevo León"
"China",25.402656793905,-99.0798976935465,"Nuevo León"
"General Terán",25.14146432556,-99.2191701517109,"Nuevo León"
"Linares",24.7786051755011,-99.4774220079544,"Nuevo León"
"Vallecillo",26.8131255442117,-99.7935891044723,"Nuevo León"
"Anáhuac",27.121908105867,-100.048174479839,"Nuevo León"
"Lampazos de Naranjo",27.0292779246966,-100.346400843114,"Nuevo León"
"Bustamante",26.5347025426569,-100.549141158265,"Nuevo León"
"Mina",26.1638100393393,-100.659924552712,"Nuevo León"
"Santa Catarina",25.6257169006539,-100.468151546367,"Nuevo León"
"Santiago",25.3945263503427,-100.187786383494,"Nuevo León"
"Villaldama",26.421924092228,-100.367891852964,"Nuevo León"
"Hidalgo",26.0013045779343,-100.45219800757,"Nuevo León"
"San Nicolás de los Garza",25.733354955797,-100.265354812475,"Nuevo León"
"Salinas Victoria",26.1180392881931,-100.308262522768,"Nuevo León"
"Sabinas Hidalgo",26.569602363022,-100.103345374855,"Nuevo León"
"Rayones",25.025508056684,-100.064824039968,"Nuevo León"
"Los Ramones",25.653820852843,-99.6131986616074,"Nuevo León"
"Pesquería",25.7274997944781,-99.9312083591757,"Nuevo León"
"Montemorelos",25.098027895784,-99.7371374712478,"Nuevo León"
"Mier y Noriega",23.4318790019036,-100.2077998481,"Nuevo León"
"Melchor Ocampo",26.0347592422306,-99.4968894380203,"Nuevo León"
"Marín",25.8590695866014,-99.9270757844956,"Nuevo León"
"Juárez",25.5988066468329,-100.115726042906,"Nuevo León"
"Iturbide",24.7840352155539,-99.9280231795554,"Nuevo León"
"Hualahuises",24.8728968147508,-99.6589604861232,"Nuevo León"
"Higueras",25.9940968524806,-99.9600282516337,"Nuevo León"
"Los Herreras",25.8874276996955,-99.4120249409912,"Nuevo León"
"Guadalupe",25.6744583090813,-100.226626338733,"Nuevo León"
"General Zuazua",25.9061128075513,-100.160407593714,"Nuevo León"
"General Zaragoza",23.9225392992888,-99.779920728955,"Nuevo León"
"General Escobedo",25.8092511782805,-100.353156612472,"Nuevo León"
"San Pedro Garza García",25.6628942360874,-100.375587787017,"Nuevo León"
"Galeana",24.7964997546701,-100.186952009223,"Nuevo León"
"Doctor González",25.8772773446513,-99.7962372181185,"Nuevo León"
"Doctor Arroyo",23.737443121279,-100.316840892287,"Nuevo León"
"Ciénega de Flores",25.9747367222042,-100.200172549804,"Nuevo León"
"Cerralvo",26.0358597026077,-99.7490973175336,"Nuevo León"
"El Carmen",25.894163073314,-100.342364613594,"Nuevo León"
"Cadereyta Jiménez",25.5606720287679,-99.9082146264152,"Nuevo León"
"Aramberri",24.2171315054101,-99.9042479502352,"Nuevo León"
"Apodaca",25.7780385497064,-100.187820112929,"Nuevo León"
"Allende",25.3015584769091,-100.013401486788,"Nuevo León"
"Abasolo",25.9398001391817,-100.411300436333,"Nuevo León"
"García",25.8151968389583,-100.588686957024,"Nuevo León"
"Monterrey",25.6572234771273,-100.299482428123,"Nuevo León"
"Taniche",16.5688143443544,-96.7583720669102,"Oaxaca"
"San Cristóbal Lachirioag",17.3447434521397,-96.1675347007488,"Oaxaca"
"San Ildefonso Villa Alta",17.3599592632721,-96.1541410140178,"Oaxaca"
"San Francisco Chindúa",17.4219920739416,-97.3234958571851,"Oaxaca"
"Santo Domingo Tlatayápam",17.4101583397073,-97.3457528113463,"Oaxaca"
"Santiago Ayuquililla",17.9448018972105,-97.9847836402619,"Oaxaca"
"San José Ayuquila",17.9526211171849,-97.9640460623074,"Oaxaca"
"San Francisco Cajonos",17.1745429070521,-96.2621101445423,"Oaxaca"
"San Pedro Cajonos",17.1644311572878,-96.2631564489567,"Oaxaca"
"San Francisco Ozolotepec",16.093395667699,-96.2087791725282,"Oaxaca"
"San Pedro y San Pablo Ayutla",17.0383104445632,-96.113047177683,"Oaxaca"
"Tamazulápam del Espíritu Santo",17.0253272971346,-96.0354119324672,"Oaxaca"
"San Juan de los Cués",18.0561698661018,-97.0273971347882,"Oaxaca"
"San Juan Lachao",16.2117989264617,-97.1017148239079,"Oaxaca"
"San Juan Ihualtepec",17.7679650309705,-98.2738186054323,"Oaxaca"
"San Juan Diuxi",17.2762763276802,-97.3807410605482,"Oaxaca"
"San Juan Colorado",16.468068877548,-97.9261297931882,"Oaxaca"
"San Juan Cieneguilla",17.8798003098283,-98.2699896245607,"Oaxaca"
"San Juan Cacahuatepec",16.633926274953,-98.1468552434205,"Oaxaca"
"San Juan Bautista Suchitepec",17.976042625682,-97.6458366749062,"Oaxaca"
"San Juan Bautista Lo de Soto",16.4935436510237,-98.3353069565908,"Oaxaca"
"San Juan Bautista Cuicatlán",17.7656653326253,-96.9898713060404,"Oaxaca"
"San Juan Bautista Coixtlahuaca",17.706727988054,-97.2707726108871,"Oaxaca"
"San Juan Achiutla",17.3311315956022,-97.5128784292168,"Oaxaca"
"San José Estancia Grande",16.370214878849,-98.2523798083782,"Oaxaca"
"San Jerónimo Tecóatl",18.1516858093506,-96.9277893510474,"Oaxaca"
"San Jerónimo Silacayoapilla",17.7959912292621,-97.8519608047555,"Oaxaca"
"San Jacinto Tlacotepec",16.4985675470968,-97.3454082845308,"Oaxaca"
"San Gabriel Mixtepec",16.0252892547591,-97.0311823203162,"Oaxaca"
"San Francisco Tlapancingo",17.4901485320682,-98.2925519607608,"Oaxaca"
"San Francisco Teopan",17.8993258723298,-97.5464724798345,"Oaxaca"
"San Francisco Jaltepetongo",17.3563866161414,-97.2779855688289,"Oaxaca"
"San Francisco Huehuetlán",18.1990587006303,-96.9346103738324,"Oaxaca"
"San Francisco Cahuacuá",16.860954597187,-97.3539939294952,"Oaxaca"
"San Esteban Atatlahuca",17.0814043937486,-97.7207742363603,"Oaxaca"
"San Cristóbal Suchixtlahuaca",17.7399999936082,-97.3808141268046,"Oaxaca"
"San Cristóbal Amoltepec",17.2936192837948,-97.5926714416891,"Oaxaca"
"San Bartolo Soyaltepec",17.5888233595328,-97.3194502510579,"Oaxaca"
"San Bartolomé Yucuañe",17.1909775809136,-97.4575782046077,"Oaxaca"
"San Antonio Tepetlapa",16.5354459443454,-98.0466490041999,"Oaxaca"
"Huautla de Jiménez",18.1268695767826,-96.8093847995343,"Oaxaca"
"Huautepec",18.0744785841762,-96.8038665646576,"Oaxaca"
"Villa Hidalgo",17.1900040257859,-96.1663639714796,"Oaxaca"
"El Espinal",16.4802687286723,-95.0307132364902,"Oaxaca"
"Chiquihuitlán de Benito Juárez",17.9916711299728,-96.7317464608857,"Oaxaca"
"Concepción Pápalo",17.8570476158992,-96.8344731984562,"Oaxaca"
"Coatecas Altas",16.4942735421867,-96.6172219001721,"Oaxaca"
"Ciudad Ixtepec",16.6050781471762,-95.0688319683084,"Oaxaca"
"Ayotzintepec",17.6987184480588,-96.195850999642,"Oaxaca"
"Asunción Tlacolulita",16.215251053493,-95.7626009433916,"Oaxaca"
"Asunción Cacalotepec",17.0309475066445,-95.9041877278016,"Oaxaca"
"Acatlán de Pérez Figueroa",18.4664767061231,-96.4816727683317,"Oaxaca"
"Abejones",17.4953281792713,-96.607550492796,"Oaxaca"
"Santa Catarina Ticuá",17.0567772267019,-97.5337684968642,"Oaxaca"
"Santa Catarina Tayata",17.34960028062,-97.553205226023,"Oaxaca"
"Santa Catarina Mechoacán",16.363071366009,-97.8463155615051,"Oaxaca"
"Santa Catarina Juquila",16.2185259527083,-97.3074334342679,"Oaxaca"
"Santa Ana Ateixtlahuaca",18.2189990047523,-96.8937408494695,"Oaxaca"
"San Simón Zahuatlán",17.8517638944281,-97.9992509807648,"Oaxaca"
"San Sebastián Tecomaxtlahuaca",17.3496080389569,-98.0853412826699,"Oaxaca"
"San Sebastián Nicananduta",17.5335560604453,-97.6746472085436,"Oaxaca"
"San Sebastián Ixcapa",16.5243762285331,-98.1502651236465,"Oaxaca"
"San Pedro Yucunama",17.5741960352672,-97.4804287248985,"Oaxaca"
"San Pedro y San Pablo Tequixtepec",18.0983220293703,-97.7193859428289,"Oaxaca"
"San Pedro y San Pablo Teposcolula",17.5125140739164,-97.5498822155982,"Oaxaca"
"San Pedro Topiltepec",17.4535129223896,-97.3504207438373,"Oaxaca"
"San Pedro Tidaá",17.3452029126351,-97.3749576746331,"Oaxaca"
"San Pedro Teozacoalco",17.00285298641,-97.2744356554918,"Oaxaca"
"San Pedro Ocopetatillo",18.1806813634511,-96.9115178296819,"Oaxaca"
"San Pedro Nopala",17.7840448147189,-97.5879495347687,"Oaxaca"
"San Pedro Molinos",17.1112656718651,-97.5433848037365,"Oaxaca"
"San Pedro Mártir Yucuxaco",17.433681600098,-97.622276945331,"Oaxaca"
"San Pedro Jocotipac",17.7731651926152,-97.074178581376,"Oaxaca"
"San Pedro Jicayán",16.4798139926688,-98.0346426140653,"Oaxaca"
"San Pedro Jaltepetongo",17.6960234804919,-97.0459952594937,"Oaxaca"
"San Pedro Coxcaltepec Cántaros",17.5389091630848,-97.0969043379762,"Oaxaca"
"San Pedro Atoyac",16.5299162964248,-97.9900201268301,"Oaxaca"
"San Pedro Amuzgos",16.6769870808379,-98.0766046686007,"Oaxaca"
"San Pablo Tijaltepec",17.0145018038255,-97.4704860712386,"Oaxaca"
"San Nicolás Hidalgo",17.7813072746508,-98.142024768474,"Oaxaca"
"San Miguel Tulancingo",17.7494730482359,-97.4375910671117,"Oaxaca"
"San Miguel Tlacotepec",17.4415342832555,-97.9994004738607,"Oaxaca"
"San Miguel Tlacamama",16.4442001217343,-98.1170350989128,"Oaxaca"
"San Miguel Tequixtepec",17.7865568942871,-97.3540785076187,"Oaxaca"
"San Miguel Tecomatlán",17.384415184064,-97.2809134961784,"Oaxaca"
"San Miguel Piedras",16.9959251418475,-97.2366918429708,"Oaxaca"
"San Miguel Panixtlahuaca",16.2307363935117,-97.4046111296287,"Oaxaca"
"San Miguel Huautla",17.769112306176,-97.1532537995462,"Oaxaca"
"San Miguel el Grande",17.0907810835561,-97.6284932466987,"Oaxaca"
"San Miguel Chicahua",17.6417213425498,-97.1897878852212,"Oaxaca"
"San Miguel Amatitlán",17.9136938975569,-98.0456587923905,"Oaxaca"
"San Miguel Ahuehuetitlán",17.6560570463275,-98.3554348340853,"Oaxaca"
"San Miguel Achiutla",17.3099456467711,-97.507746609049,"Oaxaca"
"San Mateo Tlapiltepec",17.8133736436051,-97.4462001565542,"Oaxaca"
"San Mateo Sindihui",17.0107006643531,-97.3417064944679,"Oaxaca"
"San Mateo Peñasco",17.151693779671,-97.4883008461376,"Oaxaca"
"San Mateo Nejápam",17.6416379984107,-98.4095310962982,"Oaxaca"
"San Mateo Etlatongo",17.4243080118006,-97.2650743382687,"Oaxaca"
"San Mateo Yoloxochitlán",18.1458705196845,-96.8685731068769,"Oaxaca"
"San Martín Zacatepec",17.8139306433149,-98.056065391168,"Oaxaca"
"San Martín Toxpalan",18.0947222839697,-97.0666498729859,"Oaxaca"
"San Martín Peras",17.3307880599393,-98.2263299857394,"Oaxaca"
"San Martín Itunyoso",17.2202613965343,-97.8472296217815,"Oaxaca"
"San Martín Huamelúlpam",17.4053444356659,-97.6119629990038,"Oaxaca"
"San Lucas Zoquiápam",18.1277894705665,-96.9215084958921,"Oaxaca"
"San Lorenzo Texmelúcan",16.5112412893771,-97.2325839471188,"Oaxaca"
"San Lorenzo Cuaunecuiltitla",18.2170491254473,-96.9201989173178,"Oaxaca"
"San Lorenzo",16.4018445061923,-97.8761045538336,"Oaxaca"
"San Juan Yucuita",17.5371931991538,-97.2656428209872,"Oaxaca"
"San Juan Teposcolula",17.5960644622422,-97.3902856940399,"Oaxaca"
"San Juan Teita",17.0576519400244,-97.4524644777745,"Oaxaca"
"San Juan Quiahije",16.3483964821988,-97.3488019860277,"Oaxaca"
"San Juan Ñumí",17.4284484445717,-97.7250055779823,"Oaxaca"
"San Juan Mixtepec -Dto. 08 -",17.2884958367017,-97.8643546414008,"Oaxaca"
"San Antonio Sinicahua",17.1579098721327,-97.5723856638999,"Oaxaca"
"San Antonio Nanahuatípam",18.1431974847824,-97.1296340318127,"Oaxaca"
"San Antonio Acutla",17.7416257758447,-97.4945470634573,"Oaxaca"
"San Antonino Monte Verde",17.5250003571766,-97.7296425547767,"Oaxaca"
"San Marcos Arteaga",17.7307080564782,-97.9067918532907,"Oaxaca"
"Santiago Juxtlahuaca",17.1684856036679,-98.0421253235118,"Oaxaca"
"Santiago Jamiltepec",16.185547218539,-97.7304367973535,"Oaxaca"
"Santiago Ixtayutla",16.5132416578742,-97.6674324532207,"Oaxaca"
"Santiago Ihuitlán Plumas",17.8643300983912,-97.4410815446276,"Oaxaca"
"Santiago Huauclilla",17.4982450855711,-97.0242174797463,"Oaxaca"
"Santiago Huajolotitlán",17.8199059506524,-97.7157699387316,"Oaxaca"
"Santiago del Río",17.4254747165046,-98.1157600577683,"Oaxaca"
"Santiago Chazumba",18.1530502064679,-97.7156575070115,"Oaxaca"
"Santiago Cacaloxtepec",17.7262881338289,-97.7424057638171,"Oaxaca"
"Santiago Apoala",17.6536889610507,-97.1390186658471,"Oaxaca"
"Santiago Amoltepec",16.6502153104235,-97.5191704422878,"Oaxaca"
"Santa María Zaniza",16.6159432759145,-97.3474194590521,"Oaxaca"
"Santa María Zacatepec",16.794360109963,-98.001616411842,"Oaxaca"
"Santa María Yucuhiti",17.0285959138742,-97.8027172193849,"Oaxaca"
"Santa María Yosoyúa",17.1151055629195,-97.5088310868056,"Oaxaca"
"Santa María Yolotepec",16.885487647004,-97.4774617327785,"Oaxaca"
"Santa María Texcatitlán",17.7012450178692,-97.069660994094,"Oaxaca"
"Santa María Teopoxco",18.1931691842,-96.9624404330256,"Oaxaca"
"Santa María Temaxcaltepec",16.1550137430214,-97.173341588329,"Oaxaca"
"Santa María Tecomavaca",17.9248172360337,-97.1005574744273,"Oaxaca"
"Santa María Tataltepec",17.1414867433166,-97.384539956027,"Oaxaca"
"Santa María Sola",16.5681800285232,-97.0281503686734,"Oaxaca"
"Santa María Nduayaco",17.4039565188856,-97.5147446303699,"Oaxaca"
"Santa María Nativitas",17.6476015035843,-97.3366119881196,"Oaxaca"
"Santa María Ixcatlán",17.8551563175651,-97.1337370767711,"Oaxaca"
"Santa María Ipalapa",16.5911446604012,-98.0242242153336,"Oaxaca"
"Santa María Huazolotitlán",16.2092141541273,-97.9737365490441,"Oaxaca"
"Santa María del Rosario",17.3347951372514,-97.6103110558455,"Oaxaca"
"Villa de Chilapa de Díaz",17.5624085161371,-97.6462762121485,"Oaxaca"
"Santa María Chachoápam",17.5703467419582,-97.2755828997591,"Oaxaca"
"Santa María Cortijo",16.4335642965077,-98.318203073644,"Oaxaca"
"Santa María Camotlán",17.8828525414819,-97.6781592612659,"Oaxaca"
"Heroica Ciudad de Tlaxiaco",17.2471882048443,-97.6683604257431,"Oaxaca"
"Santa María la Asunción",18.1049684979181,-96.8119611051148,"Oaxaca"
"Santa María Apazco",17.6239224261668,-97.0743062720878,"Oaxaca"
"Santa Lucía Monteverde",16.9645194987917,-97.7067040440491,"Oaxaca"
"Santa Cruz Zenzontepec",16.485598388411,-97.5108760366486,"Oaxaca"
"Santa Cruz Tayata",17.3768849083275,-97.5595767841886,"Oaxaca"
"Santa Cruz Tacahua",16.9233439762655,-97.4570338114103,"Oaxaca"
"Santa Cruz Tacache de Mina",17.8206626153569,-98.1696156241164,"Oaxaca"
"Santa Cruz Nundaco",17.1314557321682,-97.7210725333038,"Oaxaca"
"Santa Cruz Itundujia",16.7643489696475,-97.6525087420584,"Oaxaca"
"Santa Cruz de Bravo",17.5801051539061,-98.2206744188859,"Oaxaca"
"Santa Cruz Acatepec",18.1555504017026,-96.8738422954097,"Oaxaca"
"Santa Catarina Zapoquila",18.0253077986244,-97.5533469726783,"Oaxaca"
"Santa Catarina Yosonotú",17.0009992614667,-97.6785880561267,"Oaxaca"
"Yogana",16.4537236852028,-96.8015819013849,"Oaxaca"
"San Juan Bautista Valle Nacional",17.7873577093208,-96.2833822175248,"Oaxaca"
"Totontepec Villa de Morelos",17.2442257224258,-96.0626710317793,"Oaxaca"
"Tanetze de Zaragoza",17.3800677591668,-96.2898255485659,"Oaxaca"
"Sitio de Xitlapehua",16.3617474310397,-96.534717171927,"Oaxaca"
"San Vicente Coatlán",16.3570111979536,-96.852375883312,"Oaxaca"
"Santo Tomás Tamazulapan",16.2393722327297,-96.5773464863052,"Oaxaca"
"Santo Domingo Zanatepec",16.4736311651178,-94.3351005639741,"Oaxaca"
"Santo Domingo Xagacía",17.1312826354069,-96.2798950169039,"Oaxaca"
"Santo Domingo Tepuxtepec",16.9398781192949,-96.0679342162357,"Oaxaca"
"Santo Domingo Roayaga",17.3246061901772,-96.0521436939668,"Oaxaca"
"Santo Domingo Petapa",16.8942866844651,-95.217815120441,"Oaxaca"
"Santo Domingo Ozolotepec",16.1779938519946,-96.3296044484605,"Oaxaca"
"Santo Domingo de Morelos",15.8295263370095,-96.6141495782285,"Oaxaca"
"Santo Domingo Chihuitán",16.6098660770016,-95.1737545190526,"Oaxaca"
"Santo Domingo Albarradas",17.0773439374432,-96.2049368869557,"Oaxaca"
"Santo Domingo Ingenio",16.5726441502648,-94.7129786194308,"Oaxaca"
"Santiago Zoochila",17.2081602176349,-96.2510950777954,"Oaxaca"
"Santiago Zacatepec",17.2062730348293,-95.8813429337962,"Oaxaca"
"Santiago Yaveo",17.5085137897818,-95.4764078798451,"Oaxaca"
"Santiago Xanica",15.9990422432566,-96.2257693768421,"Oaxaca"
"Santiago Laxopa",17.1936324489829,-96.3179288075639,"Oaxaca"
"Santiago Laollaga",16.6699852828518,-95.2711180511083,"Oaxaca"
"Santiago Lalopa",17.4186984347127,-96.2541083732947,"Oaxaca"
"Santiago Jocotepec",17.6829792353856,-95.9840443283208,"Oaxaca"
"Santiago Ixcuintepec",16.9258353968414,-95.5446621881762,"Oaxaca"
"Santiago Comaltepec",17.6267668687249,-96.381261133937,"Oaxaca"
"Santiago Camotlán",17.5628076854887,-96.1548018309843,"Oaxaca"
"Santiago Atitlán",17.0862759644363,-95.92530068704,"Oaxaca"
"Santa María Yalina",17.2701488542816,-96.2928141872865,"Oaxaca"
"Santa María Xadani",16.3881122787031,-95.0200850643775,"Oaxaca"
"Santa María Totolapilla",16.6452566982313,-95.6150758654612,"Oaxaca"
"Santa María Tonameca",15.7466104074968,-96.6906804954494,"Oaxaca"
"Santa María Tlalixtac",17.924152018341,-96.7363399894096,"Oaxaca"
"Santa María Tlahuitoltepec",17.1045191510034,-96.0988066968659,"Oaxaca"
"Santa María Tepantlali",16.950817007779,-96.0035547594315,"Oaxaca"
"Santa María Temaxcalapa",17.3793717310753,-96.1494675631871,"Oaxaca"
"Santa María Quiegolani",16.2747848213014,-96.048411445797,"Oaxaca"
"Santa María Pápalo",17.8131603830824,-96.7546468868268,"Oaxaca"
"Santa María Ozolotepec",16.1057616742964,-96.3591027344306,"Oaxaca"
"Santa María Mixtequilla",16.3924266544908,-95.2461862595685,"Oaxaca"
"Santa María Jalapa del Marqués",16.5085642620814,-95.5240074519846,"Oaxaca"
"Santa María Jacatepec",17.8531019015208,-96.1056248657367,"Oaxaca"
"Santa María Guienagati",16.7626439340806,-95.3275538007669,"Oaxaca"
"Santa María Ecatepec",16.1860692571461,-95.9113931185865,"Oaxaca"
"Santa María Chimalapa",16.9967350108165,-94.772409407041,"Oaxaca"
"Santa María Chilchotla",18.3059807467901,-96.7201683601203,"Oaxaca"
"Santa María Alotepec",17.0475973031923,-95.8566707829718,"Oaxaca"
"Santa Lucía Miahuatlán",16.179457630687,-96.6037694323994,"Oaxaca"
"Santa Cruz Xitla",16.3688368820379,-96.6818931601213,"Oaxaca"
"Santa Catarina Loxicha",16.0426973606571,-96.7238818459971,"Oaxaca"
"Santa Catarina Cuixtla",16.2823873915768,-96.6604499534581,"Oaxaca"
"Santa Catalina Quierí",16.3366993726418,-96.2713866525549,"Oaxaca"
"Santa Ana Yareni",17.4048912677911,-96.6188152684965,"Oaxaca"
"Santa Ana Tavela",16.6132510830338,-95.8897621295413,"Oaxaca"
"Santa Ana Cuauhtémoc",18.0135517943833,-96.807929390167,"Oaxaca"
"Santa Ana",16.3520358194314,-96.7292408609028,"Oaxaca"
"San Francisco Chapulapa",17.9063242788358,-96.7407314416632,"Oaxaca"
"San Blas Atempa",16.3391915586478,-95.1904228756629,"Oaxaca"
"San Simón Almolongas",16.4162591512022,-96.7130585157835,"Oaxaca"
"San Sebastián Coatlán",16.0599882787188,-96.8594214146436,"Oaxaca"
"San Pedro Yólox",17.6343731911981,-96.5219141613578,"Oaxaca"
"San Pedro Yaneri",17.4121010489439,-96.3820245375378,"Oaxaca"
"San Pedro Totolápam",16.6634399302515,-96.2099773992895,"Oaxaca"
"San Pedro Teutila",17.9789896180274,-96.6318508303364,"Oaxaca"
"San Pedro Sochiápam",17.8039301810749,-96.6427539564335,"Oaxaca"
"San Pedro Quiatoni",16.8329231511782,-96.0331933447964,"Oaxaca"
"San Pedro Pochutla",15.8103483006898,-96.3893569524494,"Oaxaca"
"San Pedro Ocotepec",16.9702363527139,-95.8533809469555,"Oaxaca"
"San Pedro Mártir Quiechapa",16.4316216606982,-96.2902854925227,"Oaxaca"
"San Pedro Ixcatlán",18.1650281929689,-96.53543272966,"Oaxaca"
"San Pedro Huilotepec",16.2487792442099,-95.1468559174292,"Oaxaca"
"San Pedro Huamelula",15.9011666354899,-95.8396945436632,"Oaxaca"
"San Pedro el Alto",16.0215475602501,-96.4791855775175,"Oaxaca"
"San Pablo Yaganiza",17.1259958113747,-96.2165606249897,"Oaxaca"
"San Pablo Villa de Mitla",16.9856873418127,-96.2747187509384,"Oaxaca"
"San Pablo Macuiltianguis",17.5232251134723,-96.5247561106841,"Oaxaca"
"San Pablo Coatlán",16.1223551036804,-96.8183501278089,"Oaxaca"
"San Nicolás",16.4357335610706,-96.7355059576656,"Oaxaca"
"San Miguel Yotao",17.3538599075684,-96.3239689536089,"Oaxaca"
"San Miguel Tenango",16.1609065034741,-95.5560104833809,"Oaxaca"
"Villa Talea de Castro",17.3576077134195,-96.2310071173376,"Oaxaca"
"San Miguel Suchixtepec",16.0733973137819,-96.4663591311327,"Oaxaca"
"San Miguel Soyaltepec",18.2707086431596,-96.4888876325502,"Oaxaca"
"San Miguel Santa Flor",17.9291398936541,-96.8114302710681,"Oaxaca"
"San Miguel Quetzaltepec",17.0137224151058,-95.7691363319604,"Oaxaca"
"San Miguel Ejutla",16.5863391704373,-96.744266591877,"Oaxaca"
"San Miguel del Puerto",15.9239087921108,-96.1433622160463,"Oaxaca"
"San Miguel Chimalapa",16.6019807711442,-94.4672622984297,"Oaxaca"
"San Miguel Coatlán",16.1679586729439,-96.6599859115023,"Oaxaca"
"San Miguel Aloápam",17.425170242312,-96.6866876988041,"Oaxaca"
"San Melchor Betaza",17.2499563266728,-96.1572090308917,"Oaxaca"
"San Mateo Piñas",15.9834095856965,-96.3345149706995,"Oaxaca"
"San Mateo del Mar",16.2218485608943,-95.0331055412485,"Oaxaca"
"San Mateo Cajonos",17.1596224697244,-96.1955008759544,"Oaxaca"
"San Marcial Ozolotepec",16.033717486481,-96.4110285839232,"Oaxaca"
"San Luis Amatlán",16.4521531703464,-96.5037484552718,"Oaxaca"
"San Lucas Ojitlán",18.055396555012,-96.3601640040382,"Oaxaca"
"San Lucas Camotlán",16.9478665637161,-95.7055932680715,"Oaxaca"
"San Lorenzo Albarradas",16.8996523468205,-96.2321767524081,"Oaxaca"
"San Juan Yatzona",17.4072611671154,-96.1899010024351,"Oaxaca"
"San Juan Yaeé",17.4398094924677,-96.2797865930943,"Oaxaca"
"San Juan Tepeuxila",17.7083759463758,-96.7631064230371,"Oaxaca"
"San Juan Tabaá",17.3195101454456,-96.221849551185,"Oaxaca"
"San Juan Quiotepec",17.6664870006499,-96.6499057733012,"Oaxaca"
"San Juan Petlapa",17.4937659152359,-96.0459839871462,"Oaxaca"
"San Juan Mazatlán",17.1590313152573,-95.3462172170183,"Oaxaca"
"San Juan Lajarcia",16.4866822093397,-95.9242579319272,"Oaxaca"
"San Juan Lachigalla",16.543233042205,-96.5437748710813,"Oaxaca"
"San Juan Juquila Vijanos",17.3324776834485,-96.2821260364482,"Oaxaca"
"San Juan Juquila Mixes",16.8950778907887,-95.8837073814939,"Oaxaca"
"San Juan Evangelista Analco",17.4067026416346,-96.5332526545095,"Oaxaca"
"San Juan del Río",16.8928577029691,-96.1627395836078,"Oaxaca"
"San Juan Cotzocón",17.3179212273335,-95.5286094946447,"Oaxaca"
"San Juan Comaltepec",17.3412459573095,-95.952189003534,"Oaxaca"
"San Juan Coatzóspam",18.0399552268449,-96.7485502969747,"Oaxaca"
"San Juan Bautista Tuxtepec",18.0928445453781,-96.0985588771376,"Oaxaca"
"San Juan Bautista Tlacoatzintepec",17.8683437588512,-96.5780627100185,"Oaxaca"
"San Juan Bautista Jayacatlán",17.4482425396981,-96.8220975297377,"Oaxaca"
"San Juan Bautista Atatlahuca",17.638841297659,-96.7151645238033,"Oaxaca"
"San Juan Atepec",17.466796016716,-96.4885895017603,"Oaxaca"
"San José Tenango",18.1725355711218,-96.6520379516578,"Oaxaca"
"San José Lachiguiri",16.395403387763,-96.3412280652763,"Oaxaca"
"San José Independencia",18.252440215354,-96.6281109752252,"Oaxaca"
"San José Chiltepec",17.9271902645727,-96.1319505587482,"Oaxaca"
"San Jerónimo Coatlán",16.2510471735655,-96.9952787187829,"Oaxaca"
"San Francisco Logueche",16.3870041611649,-96.3665343527466,"Oaxaca"
"San Felipe Usila",17.8493139949803,-96.5173606766928,"Oaxaca"
"San Felipe Jalapa de Díaz",18.0623447268034,-96.5303594085059,"Oaxaca"
"San Dionisio Ocotepec",16.8091818529294,-96.3073629398759,"Oaxaca"
"San Dionisio del Mar",16.3150607436261,-94.7639181770653,"Oaxaca"
"San Cristóbal Amatlán",16.3147773933452,-96.3527564543092,"Oaxaca"
"San Carlos Yautepec",16.3789916460448,-95.9269110163492,"Oaxaca"
"San Bartolo Yautepec",16.4206369857642,-95.9279104375795,"Oaxaca"
"San Bartolomé Zoogocho",17.2551896287358,-96.2403222206851,"Oaxaca"
"San Bartolomé Loxicha",15.9768965755543,-96.752675914421,"Oaxaca"
"San Bartolomé Ayautla",18.0431031615375,-96.6695594913366,"Oaxaca"
"San Baltazar Yatzachi el Bajo",17.2268123081885,-96.1914554246252,"Oaxaca"
"San Baltazar Loxicha",16.0460649438609,-96.7910982241291,"Oaxaca"
"San Andrés Yaá",17.2808937144873,-96.1447787462847,"Oaxaca"
"San Andrés Teotilálpam",17.9419799567119,-96.6203567756782,"Oaxaca"
"San Andrés Solaga",17.2806982364893,-96.2247116744602,"Oaxaca"
"San Andrés Paxtlán",16.226855270754,-96.515148787751,"Oaxaca"
"San Agustín Loxicha",15.9900442747521,-96.5965351992111,"Oaxaca"
"San Agustín Amatengo",16.5195514286842,-96.8115560865022,"Oaxaca"
"Salina Cruz",16.18742575503,-95.2019755597727,"Oaxaca"
"Santa Catarina Quioquitani",16.3301559126115,-96.2838438348553,"Oaxaca"
"Santiago Niltepec",16.5127528201056,-94.6355960797089,"Oaxaca"
"Natividad",17.2989869669221,-96.4303266145802,"Oaxaca"
"Monjas",16.381520282134,-96.6238661549125,"Oaxaca"
"Mixistlán de la Reforma",17.1679114223749,-96.1096007331388,"Oaxaca"
"Magdalena Tlacotepec",16.4957972899648,-95.1966932011865,"Oaxaca"
"Magdalena Tequisistlán",16.2508166522107,-95.7311330016859,"Oaxaca"
"San Andrés Zabache",16.6024232338535,-96.8604240100842,"Oaxaca"
"San Andrés Tepetlapa",17.6513771708685,-98.3757113960473,"Oaxaca"
"San Andrés Lagunas",17.5806305987051,-97.5324932070467,"Oaxaca"
"San Andrés Huaxpaltepec",16.3657201457953,-97.9170005432517,"Oaxaca"
"San Andrés Dinicuiti",17.6922599073131,-97.7066624948714,"Oaxaca"
"San Andrés Cabecera Nueva",16.8309545265944,-97.7932184013949,"Oaxaca"
"San Agustín Tlacotepec",17.1870424489535,-97.5138853077277,"Oaxaca"
"San Agustín Chayuco",16.4575873476219,-97.8097806499681,"Oaxaca"
"San Agustín Atenango",17.5979762117401,-97.9960477816573,"Oaxaca"
"La Reforma",16.702736575899,-97.8365619931262,"Oaxaca"
"Pinotepa de Don Luis",16.3957298360913,-97.9618716967489,"Oaxaca"
"Ixpantepec Nieves",17.4962800122167,-98.0128170724145,"Oaxaca"
"Mazatlán Villa de Flores",18.0296835652098,-96.8804837267896,"Oaxaca"
"Mártires de Tacubaya",16.5563600438498,-98.2109151850964,"Oaxaca"
"Mariscala de Juárez",17.7748361376435,-98.1125433077335,"Oaxaca"
"Magdalena Zahuatlán",17.4008182899149,-97.2301496539515,"Oaxaca"
"Magdalena Peñasco",17.2375875510507,-97.5581740273273,"Oaxaca"
"Santa Magdalena Jicotlán",17.8165254429195,-97.4633283494278,"Oaxaca"
"Magdalena Jaltepec",17.1963283741752,-97.2624678599487,"Oaxaca"
"Mesones Hidalgo",16.9175972406255,-98.0099829531906,"Oaxaca"
"Guadalupe de Ramírez",17.7627736955529,-98.1859649064329,"Oaxaca"
"Fresnillo de Trujano",17.9404020375325,-98.1452892847612,"Oaxaca"
"Eloxochitlán de Flores Magón",18.1951047174088,-96.8690398338052,"Oaxaca"
"Chalcatongo de Hidalgo",16.9724706798308,-97.5662055694914,"Oaxaca"
"Cuyamecalco Villa de Zaragoza",17.9678965055804,-96.8523748471827,"Oaxaca"
"Cosoltepec",18.1242855780094,-97.7941474681321,"Oaxaca"
"Coicoyán de las Flores",17.21023883035,-98.2123345694155,"Oaxaca"
"Calihualá",17.5682179896997,-98.2626120565397,"Oaxaca"
"Asunción Cuyotepeji",17.9417042572345,-97.6298807611065,"Oaxaca"
"Zapotitlán Palmas",17.8837241056326,-97.8342726619627,"Oaxaca"
"Zapotitlán Lagunas",17.8611277066642,-98.3693700915718,"Oaxaca"
"San Mateo Yucutindoo",16.771370707654,-97.3905455181173,"Oaxaca"
"Yutanduchi de Guerrero",17.0704798241059,-97.3042387138306,"Oaxaca"
"Valerio Trujano",17.7734528255508,-96.9760635181811,"Oaxaca"
"La Trinidad Vista Hermosa",17.7708451821554,-97.4982720187844,"Oaxaca"
"Tlacotepec Plumas",17.8413253699521,-97.4495532148695,"Oaxaca"
"Heroica Villa Tezoatlán de Segura y Luna, Cuna de la Independencia de Oaxaca",17.5880904457937,-97.8576066385195,"Oaxaca"
"Teotongo",17.7518705194503,-97.5419227655955,"Oaxaca"
"Teotitlán de Flores Magón",18.1136946785921,-97.0946918147665,"Oaxaca"
"Tataltepec de Valdés",16.2859950319393,-97.5414715959404,"Oaxaca"
"Villa de Tamazulápam del Progreso",17.7316772930134,-97.5880449245107,"Oaxaca"
"San Vicente Nuñú",17.4554489300576,-97.429964228598,"Oaxaca"
"Santo Tomás Ocotepec",17.1047057841295,-97.7952896551747,"Oaxaca"
"Santos Reyes Yucuná",17.7756488838834,-98.033621169038,"Oaxaca"
"Santos Reyes Tepejillo",17.4472313921967,-97.9543519080318,"Oaxaca"
"Santos Reyes Pápalo",17.8103625093275,-96.8870207218848,"Oaxaca"
"Santos Reyes Nopala",16.069415176215,-97.1890929503012,"Oaxaca"
"Santo Domingo Yodohino",17.6311295327536,-97.7010088311383,"Oaxaca"
"Santo Domingo Yanhuitlán",17.5182892443578,-97.3404690484234,"Oaxaca"
"Santo Domingo Tonaltepec",17.6140398870249,-97.3665349496819,"Oaxaca"
"Santo Domingo Tonalá",17.6831778168579,-97.9960278433072,"Oaxaca"
"Santo Domingo Teojomulco",16.5323094836796,-97.2993379409774,"Oaxaca"
"Santo Domingo Ixcatlán",16.9078194613068,-97.5215486543418,"Oaxaca"
"Santo Domingo Armenta",16.3431354422495,-98.3728421902335,"Oaxaca"
"Santiago Yucuyachi",17.6107388807184,-98.2135447678748,"Oaxaca"
"Santiago Yosondúa",16.8628900109658,-97.5349786186861,"Oaxaca"
"Santiago Yolomécatl",17.4756309134811,-97.59347958797,"Oaxaca"
"Santiago Yaitepec",16.19780239802,-97.2468073632011,"Oaxaca"
"Santiago Tillo",17.4736462556086,-97.3077723351641,"Oaxaca"
"Santiago Tilantongo",17.1808726100744,-97.3581544806694,"Oaxaca"
"Santiago Textitlán",16.7332717177955,-97.3251649203515,"Oaxaca"
"Santiago Texcalcingo",18.2107368179612,-96.9720191233893,"Oaxaca"
"Santiago Tetepec",16.3489140575837,-97.6662794981443,"Oaxaca"
"Santiago Tepetlapa",17.7910507774131,-97.3970738534981,"Oaxaca"
"Villa Tejúpam de la Unión",17.6717414066249,-97.4646656898509,"Oaxaca"
"Santiago Tapextla",16.3274680375358,-98.4920938270472,"Oaxaca"
"Santiago Tamazola",17.7861542699073,-98.2275424819087,"Oaxaca"
"Santiago Pinotepa Nacional",16.2856653403096,-98.0725861873863,"Oaxaca"
"Santiago Nuyoó",17.009690793015,-97.7702044603032,"Oaxaca"
"Santiago Nundiche",17.3395768668311,-97.6898991887317,"Oaxaca"
"Santiago Nejapilla",17.4329861302721,-97.3864524911576,"Oaxaca"
"Santiago Nacaltepec",17.5039113758755,-96.9226984822302,"Oaxaca"
"Santiago Minas",16.4427342094505,-97.2628357539131,"Oaxaca"
"Santiago Miltepec",17.9939093709861,-97.7343097267238,"Oaxaca"
"Santiago Llano Grande",16.4836375002039,-98.2680739335035,"Oaxaca"
"Cosolapa",18.5989739894183,-96.6614690556781,"Oaxaca"
"Concepción Buenavista",18.0405948340005,-97.4272158086391,"Oaxaca"
"Tepelmeme Villa de Morelos",18.1144915523887,-97.3115339070141,"Oaxaca"
"San Jorge Nuchita",17.7070748898228,-98.0976193597124,"Oaxaca"
"San Lorenzo Victoria",17.636730125091,-98.123227211772,"Oaxaca"
"San Francisco Nuxaño",17.3659923874218,-97.3464163146988,"Oaxaca"
"Magdalena Yodocono de Porfirio Díaz",17.3771917769042,-97.3870431708382,"Oaxaca"
"San Juan Sayultepec",17.4434038206955,-97.2928199192621,"Oaxaca"
"San Andrés Sinaxtla",17.4868604659665,-97.2974384606758,"Oaxaca"
"San Francisco Sola",16.5229110501571,-96.9315376551026,"Oaxaca"
"San Pedro Juchatengo",16.3264136459676,-97.0952038581751,"Oaxaca"
"San Sebastián Río Hondo",16.1961645245933,-96.4159598102545,"Oaxaca"
"San Pedro Mixtepec -Dto. 26 -",16.2429871539356,-96.2623340431638,"Oaxaca"
"San Mateo Río Hondo",16.1033191536923,-96.4993071241034,"Oaxaca"
"San Juan Mixtepec -Dto. 26 -",16.2490325375478,-96.3136313242507,"Oaxaca"
"San José del Peñasco",16.2944374430379,-96.5081826164982,"Oaxaca"
"San Ildefonso Amatlán",16.3164017095636,-96.4621152223852,"Oaxaca"
"Miahuatlán de Porfirio Díaz",16.3763926152192,-96.6493634506531,"Oaxaca"
"Santa María del Tule",17.0383398528102,-96.6231625986706,"Oaxaca"
"Heroica Ciudad de Ejutla de Crespo",16.5979101568465,-96.7670972116497,"Oaxaca"
"Ayoquezco de Aldama",16.6775061848826,-96.8568774568848,"Oaxaca"
"San Jerónimo Sosola",17.3819039313852,-97.0210489935445,"Oaxaca"
"San Francisco Telixtlahuaca",17.3611115389239,-96.9501815740954,"Oaxaca"
"San Felipe Tejalápam",17.0734746403817,-96.8882836261346,"Oaxaca"
"San Bernardo Mixtepec",16.8632110184322,-96.9264092964436,"Oaxaca"
"Guelatao de Juárez",17.3153293577035,-96.4960339077228,"Oaxaca"
"Guadalupe Etla",17.1756615767231,-96.8055937926543,"Oaxaca"
"Cuilápam de Guerrero",17.0050981761204,-96.7852820812785,"Oaxaca"
"La Compañía",16.5781140389755,-96.8413265203109,"Oaxaca"
"Ciénega de Zimatlán",16.8946766359004,-96.7610307169249,"Oaxaca"
"San Miguel Peras",16.9295518920403,-97.0162573260689,"Oaxaca"
"San Miguel Mixtepec",16.7770771743525,-96.9416496756405,"Oaxaca"
"San Martín Lachilá",16.617735252985,-96.851634771944,"Oaxaca"
"San Juan Tamazola",17.1052434480224,-97.1539750188514,"Oaxaca"
"San Antonio Huitepec",16.9150937262157,-97.1336591372553,"Oaxaca"
"San Antonino el Alto",16.828910103562,-97.0705037376915,"Oaxaca"
"Santa María Peñoles",17.0404377161833,-97.0407899992681,"Oaxaca"
"Santa María Lachixío",16.7368610878485,-97.0555412423168,"Oaxaca"
"Villa de Zaachila",16.9499658827403,-96.7531092545625,"Oaxaca"
"Yaxe",16.7222046806207,-96.466160064097,"Oaxaca"
"Villa Díaz Ordaz",17.0676908761726,-96.3498628299291,"Oaxaca"
"Trinidad Zaachila",16.9189552086908,-96.7836594437443,"Oaxaca"
"Teococuilco de Marcos Pérez",17.3113062984119,-96.6761282948852,"Oaxaca"
"Soledad Etla",17.1626168482909,-96.8181883832873,"Oaxaca"
"Santo Domingo Tomaltepec",17.0601339728587,-96.6189213845312,"Oaxaca"
"Nuevo Zoquiápam",17.2675940675221,-96.6635975555959,"Oaxaca"
"Santiago Xiacuí",17.2920389627475,-96.4027718420879,"Oaxaca"
"Santiago Matatlán",16.8120360613886,-96.4327968644011,"Oaxaca"
"Santa María Zoquitlán",16.5077951243356,-96.3856420217236,"Oaxaca"
"Santa María Yavesía",17.1992662211342,-96.4224092410333,"Oaxaca"
"Santa María Jaltianguis",17.365863373268,-96.5440731626226,"Oaxaca"
"Santa María Guelacé",17.0012378712899,-96.6114543929851,"Oaxaca"
"Santa María Coyotepec",16.9652218623341,-96.7170228071118,"Oaxaca"
"Santa María Atzompa",17.0947406272672,-96.7804978881649,"Oaxaca"
"Santa Lucía Ocotlán",16.7306840822753,-96.6722882078246,"Oaxaca"
"Santa Inés Yatzeche",16.8109936222876,-96.7568431574192,"Oaxaca"
"Santa Inés del Monte",16.904389066664,-96.8563459800108,"Oaxaca"
"Santa Gertrudis",16.7738619006235,-96.7981564621166,"Oaxaca"
"Santa Cruz Xoxocotlán",17.0196802744891,-96.7467345796029,"Oaxaca"
"Santa Cruz Papalutla",16.9677122324389,-96.5888713087227,"Oaxaca"
"Santa Cruz Mixtepec",16.7729815423316,-96.8834267301353,"Oaxaca"
"Santa Cruz Amilpas",17.0504267428791,-96.6865114915916,"Oaxaca"
"Santa Catarina Quiané",16.8863476726922,-96.7425746197638,"Oaxaca"
"Santa Catarina Minas",16.7719552984535,-96.620910355088,"Oaxaca"
"Santa Catarina Lachatao",17.2116180403415,-96.4848585663431,"Oaxaca"
"Santa Catarina Ixtepeji",17.2388188709882,-96.5599412191526,"Oaxaca"
"Santa Ana Tlapacoyan",16.7433527462328,-96.856130428454,"Oaxaca"
"Santa Ana del Valle",17.0051238444842,-96.4598396360285,"Oaxaca"
"San Antonio de la Cal",17.0290697187068,-96.7028660530523,"Oaxaca"
"San Sebastián Teitipac",16.933818453546,-96.6251985570093,"Oaxaca"
"San Sebastián Abasolo",16.9894159008782,-96.5922687794582,"Oaxaca"
"San Raymundo Jalpan",16.9816347723604,-96.7565599649637,"Oaxaca"
"San Pedro Taviche",16.6403975923399,-96.5226751474716,"Oaxaca"
"San Pedro Ixtlahuaca",17.0590119537364,-96.8150754892428,"Oaxaca"
"San Pablo Huixtepec",16.8221440554728,-96.7957311276039,"Oaxaca"
"San Pablo Etla",17.1490441802284,-96.7667453947037,"Oaxaca"
"San Miguel Tilquiápam",16.7461699211179,-96.5626722955637,"Oaxaca"
"San Miguel del Río",17.3354745665222,-96.5727159314734,"Oaxaca"
"San Miguel Amatlán",17.2143584570398,-96.4603392845821,"Oaxaca"
"Capulálpam de Méndez",17.30392746748,-96.4110418306318,"Oaxaca"
"San Martín de los Cansecos",16.65660001735,-96.7333378418022,"Oaxaca"
"San Lucas Quiaviní",16.891094150017,-96.4599334994781,"Oaxaca"
"San Lorenzo Cacaotepec",17.135042403887,-96.7928626263098,"Oaxaca"
"San Juan Teitipac",16.9280629438096,-96.619756734733,"Oaxaca"
"San Juan Guelavía",16.9552076379566,-96.5227856890378,"Oaxaca"
"San Juan Chicomezúchil",17.2885548388522,-96.512427833519,"Oaxaca"
"San Juan Bautista Guelache",17.2116921247335,-96.789744611158,"Oaxaca"
"Ánimas Trujano",16.9924869457913,-96.7154957671982,"Oaxaca"
"San Jerónimo Taviche",16.7337417063504,-96.5859709022879,"Oaxaca"
"San Jacinto Amilpas",17.0930906738627,-96.7579902563695,"Oaxaca"
"San Bartolomé Quialana",16.9024246365442,-96.4922393428902,"Oaxaca"
"San Baltazar Chichicápam",16.750603295818,-96.4945105070639,"Oaxaca"
"San Agustín Etla",17.1883526438323,-96.7638614532823,"Oaxaca"
"San Agustín de las Juntas",17.0050800210314,-96.7077979293657,"Oaxaca"
"Rojas de Cuauhtémoc",17.0090563995365,-96.6191391751128,"Oaxaca"
"La Pe",16.6273371945615,-96.7965846648789,"Oaxaca"
"Magdalena Teitipac",16.8986026769545,-96.5567607461656,"Oaxaca"
"Magdalena Ocotlán",16.7088289006851,-96.7218490794568,"Oaxaca"
"San Andrés Nuxiño",17.2141616235942,-97.0446530936256,"Oaxaca"
"San Andrés Ixtlahuaca",17.0692257482443,-96.8403609991277,"Oaxaca"
"Nazareno Etla",17.1806239957868,-96.8270753660011,"Oaxaca"
"Magdalena Mixtepec",16.8967559005853,-96.9125631763582,"Oaxaca"
"Santa Inés de Zaragoza",17.2742462753631,-97.1407816644696,"Oaxaca"
"San Vicente Lachixío",16.6289358408858,-97.0439453773577,"Oaxaca"
"Santo Tomás Mazaltepec",17.1627476552932,-96.882611256462,"Oaxaca"
"Santo Domingo Nuxaá",17.1353489631425,-97.0461512917161,"Oaxaca"
"Santiago Tlazoyaltepec",17.0246139531982,-96.9712795726274,"Oaxaca"
"Santiago Tenango",17.3211066429655,-97.0141786377824,"Oaxaca"
"San Ildefonso Sola",16.5743729743216,-96.9663972523,"Oaxaca"
"Villa Sola de Vega",16.5636821056563,-97.0701685025527,"Oaxaca"
"San Pablo Huitzo",17.2804882718214,-96.9107282554858,"Oaxaca"
"Villa de Etla",17.1999640067091,-96.7949844351227,"Oaxaca"
"San Juan del Estado",17.3229710973497,-96.7717655798645,"Oaxaca"
"Magdalena Apasco",17.2301223014587,-96.8169575676041,"Oaxaca"
"Reyes Etla",17.2093400130084,-96.8137441071623,"Oaxaca"
"Santiago Suchilquitongo",17.2471090814937,-96.8971475273738,"Oaxaca"
"Tlalixtac de Cabrera",17.0748509917309,-96.6344984996471,"Oaxaca"
"San Andrés Huayápam",17.1041983858125,-96.6773531018844,"Oaxaca"
"Oaxaca de Juárez",17.0821822367777,-96.7310351930225,"Oaxaca"
"San Francisco Lachigoló",17.0188289105669,-96.5939405887491,"Oaxaca"
"San Jerónimo Tlacochahuaya",17.0063682262582,-96.5686518176701,"Oaxaca"
"Teotitlán del Valle",17.0399328175566,-96.5386668262364,"Oaxaca"
"Asunción Ocotlán",16.7605048640563,-96.7194741393369,"Oaxaca"
"Santo Tomás Jalieza",16.867828383456,-96.6595885684972,"Oaxaca"
"San Pedro Mártir",16.7435196894328,-96.7040324298538,"Oaxaca"
"San Martín Tilcajete",16.864297853282,-96.6947506879344,"Oaxaca"
"San Juan Chilateca",16.8307789264594,-96.675408655957,"Oaxaca"
"San Dionisio Ocotlán",16.7464141822866,-96.6674848092392,"Oaxaca"
"Ocotlán de Morelos",16.7798351483209,-96.6933547169312,"Oaxaca"
"San Pedro Apóstol",16.7386311161132,-96.7310106939035,"Oaxaca"
"San José del Progreso",16.7141496062135,-96.6918222404225,"Oaxaca"
"San Agustín Yatareni",17.0804093645255,-96.6838403000616,"Oaxaca"
"Santiago Apóstol",16.7932845344399,-96.7289549473313,"Oaxaca"
"Santa Ana Zegache",16.8380671721993,-96.7378123132429,"Oaxaca"
"San Antonino Castillo Velasco",16.8128350911057,-96.6891121499764,"Oaxaca"
"San Pedro Mixtepec -Dto. 22 -",15.9518368193057,-97.0550711626353,"Oaxaca"
"Santa María Colotepec",15.8438627891051,-96.9860234919499,"Oaxaca"
"Candelaria Loxicha",15.9260368297166,-96.5143926886022,"Oaxaca"
"Pluma Hidalgo",15.9308761391966,-96.4500721816573,"Oaxaca"
"Unión Hidalgo",16.4912962867225,-94.8273575098395,"Oaxaca"
"Heroica Ciudad de Juchitán de Zaragoza",16.4042560184872,-94.9611367630193,"Oaxaca"
"San Francisco Ixhuatán",16.3212842228989,-94.5016704558956,"Oaxaca"
"San Francisco del Mar",16.2326902545899,-94.4442772770201,"Oaxaca"
"Reforma de Pineda",16.3945953905813,-94.4526852913558,"Oaxaca"
"Chahuites",16.2914982329869,-94.1901845784858,"Oaxaca"
"Asunción Ixtaltepec",16.6351234851215,-94.9818963909469,"Oaxaca"
"San Pedro Comitancillo",16.4666146734583,-95.170865251707,"Oaxaca"
"El Barrio de la Soledad",16.8320838716782,-95.0256517588988,"Oaxaca"
"Santa María Petapa",16.9015302147095,-95.0323059021769,"Oaxaca"
"San Andrés Zautla",17.1884065908324,-96.8572058541771,"Oaxaca"
"San Juan Ozolotepec",16.0714756350299,-96.2025125533426,"Oaxaca"
"San Pedro Tapanatepec",16.2424056629385,-94.3173460784547,"Oaxaca"
"Santiago Astata",15.9413035212835,-95.5986623928566,"Oaxaca"
"Santa María Huatulco",15.7923534041122,-96.1691748829952,"Oaxaca"
"Villa de Tututepec de Melchor Ocampo",16.0814715649061,-97.4969952947907,"Oaxaca"
"Matías Romero Avendaño",17.0809515310921,-94.9772169340527,"Oaxaca"
"Santiago Lachiguiri",16.8191784108638,-95.5182567263655,"Oaxaca"
"San Juan Lalana",17.5359581226182,-95.7577669585644,"Oaxaca"
"Ixtlán de Juárez",17.4999745691217,-96.3121502618356,"Oaxaca"
"San Juan Bautista Tlachichilco",17.5843446921952,-98.3223905740878,"Oaxaca"
"Putla Villa de Guerrero",17.0096603208745,-97.8616171857906,"Oaxaca"
"Heroica Ciudad de Huajuapan de León",17.8534379646548,-97.8135669444448,"Oaxaca"
"Constancia del Rosario",17.0581880433792,-98.0057597418654,"Oaxaca"
"Asunción Nochixtlán",17.3888373721881,-97.1554012545556,"Oaxaca"
